stop_id,stop_code,stop_name,stop_desc,stop_lat,stop_lon,zone_id,stop_url,location_type,parent_station
0089,,"MONTGOMERY",,50.838006,4.408970,,,0,37
0470F,,"SIMONIS",,50.863666,4.329612,,,0,53
0471,,"SIMONIS",,50.863732,4.329236,,,0,53
0472,,"SIMONIS",,50.863543,4.329023,,,0,53
0473F,,"SIMONIS",,50.863418,4.330031,,,0,53
0501,,"DE BROUCKERE",,50.851494,4.352876,,,0,15
0506,,"DE BROUCKERE",,50.851746,4.353415,,,0,15
0511,,"ROGIER",,50.855635,4.358040,,,0,41
0516,,"ROGIER",,50.855933,4.358494,,,0,41
0521,,"GARE DU NORD",,50.860134,4.359946,,,0,61
0526,,"GARE DU NORD",,50.860718,4.360500,,,0,61
0529,,"ROGIER",,50.856232,4.358726,,,0,41
0531,,"GARE DU NORD",,50.860053,4.359662,,,0,61
0520161,,"1 - Gare SNCB",,50.860529,4.359407,,,2,61
0536,,"GARE DU NORD",,50.860763,4.360273,,,0,61
0601,,"BOURSE",,50.847772,4.348972,,,0,62
0600162,,"1 - Boulevard Anspach",,50.848662,4.350150,,,2,62
0600262,,"2 - Boulevard Anspach",,50.848662,4.350150,,,2,62
0600362,,"3 - Bourse",,50.847655,4.349128,,,2,62
0600462,,"4 - Bourse",,50.847655,4.349128,,,2,62
0600562,,"5 - Boulevard Anspach",,50.847232,4.348688,,,2,62
0600662,,"6 - Boulevard Anspach",,50.847232,4.348688,,,2,62
0600762,,"7 - Boulevard Anspach",,50.847340,4.348419,,,2,62
0600862,,"8 - Boulevard Anspach",,50.847340,4.348419,,,2,62
0600962,,"9 - Bourse",,50.847898,4.349000,,,2,62
0601062,,"10 - Bourse",,50.847898,4.349000,,,2,62
0601162,,"11 - Place de la Bourse",,50.848248,4.349157,,,2,62
0601262,,"12 - Boulevard Anspach",,50.848797,4.349952,,,2,62
0606,,"BOURSE",,50.848086,4.349455,,,0,62
0611,,"ANNEESSENS",,50.844184,4.345254,,,0,63
0610163,,"1 - Place Anneessens",,50.843789,4.345183,,,2,63
0610363,,"3 - Rue de Tournai",,50.843051,4.344558,,,2,63
0610463,,"4 - Boulevard Maurice Lemonnier",,50.843222,4.344132,,,2,63
0610563,,"5 - Place Anneessens",,50.843681,4.344515,,,2,63
0610663,,"6 - Place Anneessens",,50.843905,4.344728,,,2,63
0616,,"ANNEESSENS",,50.844490,4.345736,,,0,63
0610263,,"2 - Place Anneessens",,50.843483,4.344927,,,2,63
0621,,"LEMONNIER",,50.840084,4.341039,,,0,64
0620164,,"1 - Boulevard Maurice Lemonnier",,50.840345,4.341181,,,2,64
0626,,"LEMONNIER",,50.840399,4.341408,,,0,64
0631,,"GARE DU MIDI",,50.836497,4.337946,,,0,
0636,,"GARE DU MIDI",,50.836811,4.337407,,,0,
0702,,"GARE DU MIDI",,50.836353,4.338259,,,0,49
0703,,"PORTE DE HAL",,50.832547,4.342972,,,0,48
0704,,"PARVIS ST-GILLES",,50.829721,4.346537,,,0,65
0650165,,"1 - Parvis de Saint-Gilles",,50.830304,4.344934,,,2,65
0650265,,"2 - Rue Hôtel des Monnaies",,50.829379,4.347021,,,2,65
0705,,"HORTA",,50.825702,4.345490,,,0,66
0660166,,"1 - Chaussée de Waterloo",,50.826439,4.346469,,,2,66
0660266,,"2 - Chaussée de Waterloo",,50.826115,4.345915,,,2,66
0706,,"ALBERT",,50.821090,4.343888,,,0,67
0670167,,"1 - Avenue Jupiter",,50.820936,4.341334,,,2,67
0670267,,"2 - Avenue Besme",,50.821728,4.342015,,,2,67
0670367,,"3 - Avenue Albert",,50.821530,4.342994,,,2,67
0711F,,"ALBERT",,50.820802,4.340965,,,0,
0712F,,"ALBERT",,50.821021,4.341497,,,0,
0722,,"ALBERT",,50.822303,4.343561,,,0,67
0723,,"HORTA",,50.826043,4.345887,,,0,66
0724,,"PARVIS ST-GILLES",,50.829944,4.346011,,,0,65
0725,,"PORTE DE HAL",,50.832821,4.342903,,,0,48
0726,,"GARE DU MIDI",,50.836586,4.337506,,,0,49
0801,,"MONTGOMERY",,50.837123,4.407182,,,0,37
0806,,"MONTGOMERY",,50.837555,4.407424,,,0,37
0811,,"GEORGES HENRI",,50.843453,4.405598,,,0,69
0810169,,"1 - Square Vergote",,50.844621,4.404576,,,2,69
0810269,,"2 - Square Vergote",,50.844630,4.405413,,,2,69
0810369,,"3 - Boulevard Brand Whitlock",,50.842904,4.406377,,,2,69
0810469,,"4 - Boulevard Brand Whitlock",,50.842832,4.405611,,,2,69
0816,,"GEORGES HENRI",,50.843896,4.405406,,,0,69
0821,,"DIAMANT",,50.848931,4.402428,,,0,68
0820168,,"1 - Boulevard Auguste Reyers",,50.849280,4.402570,,,2,68
0820268,,"2 - Boulevard Auguste Reyers",,50.849297,4.401611,,,2,68
0826,,"DIAMANT",,50.849394,4.402198,,,0,68
0901,,"BOILEAU",,50.832955,4.405187,,,0,70
0900170,,"1 - Boulevard Saint-Michel",,50.832036,4.404410,,,2,70
0900270,,"2 - Rue Charles Legrelle",,50.834085,4.405149,,,2,70
0900370,,"3 - Rue Charles Legrelle",,50.834049,4.405320,,,2,70
0900470,,"4 - Rue Père E. Devroye",,50.834058,4.406242,,,2,70
0900570,,"5 - Avenue Boileau",,50.832305,4.405304,,,2,70
0906,,"BOILEAU",,50.833663,4.405561,,,0,70
1000,,"GARE CENTRALE",,50.845100,4.359617,,,0,
1001,,"GARE CENTRALE",,50.844568,4.356926,,,0,
1003,,"GARE CENTRALE",,50.844659,4.359615,,,0,
1005,,"GARE CENTRALE",,50.846832,4.356626,,,0,
1006,,"POGGE",,50.866609,4.375391,,,0,
1007,,"POGGE",,50.866411,4.375226,,,0,
1010,,"LE ROUX",,50.878265,4.321409,,,0,
1014F,,"MIROIR",,50.870847,4.324577,,,0,
1015,,"BERVOETS",,50.816648,4.319873,,,0,
1018,,"BON AIR",,50.835978,4.274419,,,0,
1019,,"PICARD",,50.864062,4.344119,,,0,
1024B,,"WTC",,50.861176,4.355358,,,0,
1027,,"BRAVES",,50.773318,4.336610,,,0,
1035,,"GARE DE JETTE",,50.880181,4.330411,,,0,
1036,,"GARE DE JETTE",,50.880162,4.330173,,,0,
1037,,"HOP. MILITAIRE",,50.907736,4.389004,,,0,
1038,,"HOP. MILITAIRE",,50.907873,4.389203,,,0,
1040,,"MERCATOR",,50.908333,4.396090,,,0,
1041,,"MERCATOR",,50.908496,4.395102,,,0,
1042,,"ICHEC",,50.838265,4.408091,,,0,
1043,,"HOF TER MUSSCHEN",,50.854208,4.447844,,,0,
1044,,"SIMONE VEIL",,50.905522,4.403494,,,0,
1046G,,"LEGRAND",,50.816346,4.371817,,,0,
1047F,,"LEGRAND",,50.815959,4.371874,,,0,
1048F,,"LEGRAND",,50.815564,4.371760,,,0,
1049F,,"LEGRAND",,50.815519,4.371065,,,0,
1050,,"SIMONE VEIL",,50.905996,4.402031,,,0,
1053,,"MARLY",,50.898577,4.402396,,,0,
1054,,"NELSON MANDELA",,50.899278,4.399029,,,0,
1055,,"VANDERSTICHELEN",,50.865946,4.338822,,,0,
1056,,"PICARD",,50.864456,4.343166,,,0,
1057,,"PETER BENOIT",,50.895472,4.388029,,,0,
1060,,"HEEMBEEK",,50.887074,4.377409,,,0,
1061,,"HEEMBEEK",,50.887234,4.377897,,,0,
1062,,"HEEMBEEK",,50.887490,4.378208,,,0,
1063,,"CESAR DE PAEPE",,50.842901,4.350818,,,0,
1064,,"GOFFIN",,50.866879,4.310144,,,0,
1065,,"LE ROUX",,50.879155,4.321791,,,0,
1066,,"EUGENE TOUSSAINT",,50.881187,4.321846,,,0,
1068,,"PRES COMMUNS",,50.889929,4.381395,,,0,
1069,,"PRES COMMUNS",,50.889837,4.380858,,,0,
1071,,"FOREST NATIONAL",,50.810403,4.324666,,,0,
1074,,"ZAMAN-FOREST NAT.",,50.813199,4.324849,,,0,
1078,,"ZAMAN-FOREST NAT.",,50.813061,4.324730,,,0,
1082,,"GARE DU NORD",,50.860915,4.358361,,,0,
1083,,"GARE DU NORD",,50.860394,4.358898,,,0,
1085,,"BERVOETS",,50.817464,4.320483,,,0,
1086,,"PAUL DESCHANEL",,50.859427,4.379125,,,0,
1089,,"PAVILLONS MEUDON",,50.893925,4.397845,,,0,
1090,,"PAVILLONS MEUDON",,50.893896,4.397901,,,0,
1094,,"VALIDA",,50.866310,4.303465,,,0,
1094F,,"VALIDA",,50.866292,4.303465,,,0,
1095,,"PLACE DE L'EGLISE",,50.861233,4.292961,,,0,
1096,,"BENES",,50.864112,4.312275,,,0,
1097,,"BASTOGNE",,50.861273,4.315886,,,0,
1098,,"SIPPELBERG",,50.861828,4.322201,,,0,
1099,,"PARC MONNET",,50.869995,4.288174,,,0,
1102A,,"SEPT ETOILES",,50.864585,4.285551,,,0,
1103,,"ANCIENNE BARRIERE",,50.885545,4.316271,,,0,
1105,,"COMHAIRE",,50.859962,4.296378,,,0,
1108,,"GOFFIN",,50.866778,4.308838,,,0,
1110,,"VAN HAELEN",,50.780214,4.325869,,,0,
1111,,"COLLEGE S.-COEUR",,50.866675,4.314886,,,0,
1112,,"SIMONIS",,50.862960,4.330756,,,0,
1113,,"ICHEC",,50.838804,4.408276,,,0,
1114B,,"VANHUFFEL",,50.860432,4.331643,,,0,
1115,,"AUTRIQUE",,50.858770,4.330078,,,0,
1116,,"HUNDERENVELD",,50.866817,4.281688,,,0,
1117,,"DELACROIX",,50.845805,4.323060,,,0,
1118B,,"GENOT",,50.862575,4.301247,,,0,
1119,,"WINTEROY",,50.864477,4.306620,,,0,
1120,,"WINTEROY",,50.864500,4.306428,,,0,
1121,,"BLOKKEN",,50.921593,4.428627,,,0,
1124,,"TRONE",,50.841632,4.364819,,,0,
1125,,"HOP. SAINT-PIERRE",,50.834700,4.346152,,,0,
1126,,"JEU DE BALLE",,50.837424,4.349035,,,0,
1127,,"CHAPELLE",,50.841246,4.351814,,,0,
1128,,"PETIT SABLON",,50.839898,4.355875,,,0,
1131B,,"LUXEMBOURG",,50.839745,4.373679,,,0,
1132,,"TREVES",,50.841004,4.374318,,,0,
1133,,"PARC LEOPOLD",,50.840341,4.378663,,,0,
1134,,"NERVIENS",,50.839287,4.386635,,,0,
1135,,"GAULOIS",,50.838062,4.392801,,,0,
1136,,"MERODE",,50.839216,4.398528,,,0,
1138,,"ZEPHYR",,50.846783,4.420899,,,0,
1139,,"GEORGES HENRI",,50.842148,4.406718,,,0,
1140,,"DEGROOFF",,50.843639,4.411958,,,0,
1141,,"MEUDON",,50.845080,4.417254,,,0,
1142,,"HUNDERENVELD",,50.867240,4.281502,,,0,
1150,,"ZEPHYR",,50.847132,4.421532,,,0,
1152,,"MEUDON",,50.844896,4.416770,,,0,
1153,,"DEGROOFF",,50.843612,4.411504,,,0,
1154,,"GEORGES HENRI",,50.841746,4.406374,,,0,
1156,,"MERODE",,50.839607,4.398226,,,0,
1157,,"GAULOIS",,50.838215,4.392560,,,0,
1158,,"NERVIENS",,50.839573,4.386044,,,0,
1159,,"GAULOIS",,50.838242,4.392106,,,0,
1160,,"TREVES",,50.841975,4.374715,,,0,
1162C,,"LUXEMBOURG",,50.839401,4.373376,,,0,
1167,,"CHAPELLE",,50.840890,4.350595,,,0,
1168,,"JEU DE BALLE",,50.837426,4.346872,,,0,
1169,,"PORTE DE HAL",,50.834403,4.343214,,,0,
1172,,"LIBERTE",,50.862688,4.326239,,,0,
1177,,"PAUL DESCHANEL",,50.859755,4.378841,,,0,
1178,,"DELACROIX",,50.845922,4.323329,,,0,
1179,,"AUTRIQUE",,50.858860,4.330205,,,0,
1180,,"VANHUFFEL",,50.860483,4.331816,,,0,
1182,,"SIPPELBERG",,50.861968,4.321936,,,0,
1183,,"SIMONIS",,50.863355,4.330671,,,0,
1184,,"LIBERTE",,50.862752,4.325697,,,0,
1187,,"ROYALE",,50.841300,4.358156,,,0,
1190,,"COMHAIRE",,50.860912,4.296286,,,0,
1193A,,"SEPT ETOILES",,50.865548,4.284473,,,0,
1194,,"HUNDERENVELD",,50.866952,4.281290,,,0,
1195,,"HUNDERENVELD",,50.866943,4.281332,,,0,
1196,,"PARC MONNET",,50.869753,4.288799,,,0,
1197,,"BASTOGNE",,50.861354,4.316156,,,0,
1198,,"BENES",,50.864311,4.312234,,,0,
1199F,,"GOFFIN",,50.866834,4.308323,,,0,
1201,,"MOORTEBEEK",,50.841799,4.286876,,,0,
1202,,"OSSEGHEM",,50.856387,4.326529,,,0,
1203,,"WESTLAND SHOPPING",,50.838025,4.284196,,,0,
1204,,"FRUITS",,50.837374,4.290288,,,0,
1207,,"PAULSEN",,50.843463,4.300495,,,0,
1209,,"PLACE DE L'EGLISE",,50.861772,4.291597,,,0,
1212,,"VANDERSTICHELEN",,50.866217,4.338437,,,0,
1218,,"ROYALE",,50.841778,4.358713,,,0,
1220,,"ALBERT",,50.821161,4.341972,,,0,
1221,,"ALBERT",,50.820955,4.342058,,,0,
1226,,"SIMONE VEIL",,50.905632,4.402999,,,0,
1227,,"LEMONNIER",,50.841047,4.340769,,,0,
1229,,"UNION",,50.819628,4.325398,,,0,
1230,,"UNION",,50.821157,4.325978,,,0,
1231,,"CHATAIGNES",,50.817222,4.325196,,,0,
1232,,"CHATAIGNES",,50.817292,4.325487,,,0,
1233,,"LUXEMBOURG",,50.838936,4.372733,,,0,
1236,,"VALIDA",,50.866256,4.303181,,,0,
1236F,,"VALIDA",,50.866256,4.303153,,,0,
1237,,"ELEPHANT",,50.851948,4.332370,,,0,
1242,,"ELEPHANT",,50.851954,4.333500,,,0,
1243,,"NEPTUNIUM",,50.865284,4.377560,,,0,
1244,,"GROENINGHE",,50.854077,4.328448,,,0,
1246,,"NEPTUNIUM",,50.865419,4.377687,,,0,
1250,,"HOUZEAU",,50.803050,4.358807,,,0,
1251,,"HOUZEAU",,50.803621,4.358749,,,0,
1252,,"STOCKEL",,50.840858,4.462754,,,0,
1257,,"PAULSEN",,50.843753,4.300032,,,0,
1260,,"FRUITS",,50.837572,4.289977,,,0,
1261,,"WESTLAND SHOPPING",,50.838385,4.284139,,,0,
1262B,,"LUXEMBOURG",,50.840268,4.373914,,,0,
1271B,,"FROISSART",,50.840523,4.382669,,,0,
1272,,"BOURDON",,50.786881,4.329615,,,0,
1273,,"AMBIORIX",,50.846234,4.383470,,,0,
1274,,"CREMATORIUM",,50.784415,4.328056,,,0,
1275,,"CREMATORIUM",,50.784830,4.328375,,,0,
1278,,"LA CHASSE",,50.829955,4.390926,,,0,
1279,,"BOURDON",,50.787161,4.329852,,,0,
1280B,,"FLAGEY",,50.828384,4.373165,,,0,
1281,,"SUZAN DANIEL",,50.863306,4.349156,,,0,
1282,,"SUZAN DANIEL",,50.863018,4.348724,,,0,
1283B,,"BIPLAN",,50.884092,4.410163,,,0,
1285,,"PETIT SABLON",,50.839354,4.355459,,,0,
1286,,"SIMONIS",,50.863005,4.330789,,,0,
1288,,"SIMONIS",,50.863301,4.330614,,,0,
1289,,"STADE",,50.893809,4.331860,,,0,
1290,,"STADE",,50.893462,4.332132,,,0,
1293,,"GARE DU NORD",,50.859127,4.358129,,,0,
1293B,,"GARE DU NORD",,50.859127,4.358129,,,0,
1295,,"GARE DU NORD",,50.859378,4.357575,,,0,
1302,,"STOCKEL",,50.839796,4.463803,,,0,
1303,,"RIETHUISEN",,50.867019,4.321136,,,0,
1304,,"COLLEGE S.-COEUR",,50.866675,4.314772,,,0,
1306,,"SCHWEITZER",,50.864418,4.297090,,,0,
1306F,,"SCHWEITZER",,50.864418,4.297090,,,0,
1307,,"SCHWEITZER",,50.864373,4.296735,,,0,
1307F,,"SCHWEITZER",,50.864364,4.296721,,,0,
1308G,,"SCHWEITZER",,50.864581,4.297151,,,0,
1310,,"SCHWEITZER",,50.864894,4.296868,,,0,
1313,,"BOSSAERT-BASILIQ.",,50.865077,4.320101,,,0,
1314,,"BESME",,50.863632,4.324662,,,0,
1317,,"SCHUMAN",,50.844329,4.384186,,,0,
1318,,"SCHUMAN",,50.844356,4.383817,,,0,
1320,,"ARIANE",,50.856440,4.431044,,,0,
1321,,"ARIANE",,50.856610,4.432322,,,0,
1328,,"ARBRE BALLON",,50.892851,4.312731,,,0,
1334,,"ARBRE BALLON",,50.892622,4.314011,,,0,
1339,,"KRAAINEM",,50.849022,4.459021,,,0,
1343,,"DE WANSIJN",,50.791908,4.357665,,,0,
1344,,"DE WANSIJN",,50.791807,4.356808,,,0,
1347,,"DROSSART",,50.792014,4.352949,,,0,
1348,,"TOUR ET TAXIS",,50.864947,4.350303,,,0,
1349,,"TOUR ET TAXIS",,50.865086,4.351110,,,0,
1355,,"ROODEBEEK",,50.847470,4.436562,,,0,
1356,,"TOUR ET TAXIS",,50.865586,4.350999,,,0,
1358,,"COTEAUX",,50.859690,4.376229,,,0,
1359,,"ROBIANO",,50.860168,4.369247,,,0,
1368,,"ANCIENNE BARRIERE",,50.885087,4.318659,,,0,
1375,,"GERGEL",,50.851218,4.487768,,,0,
1376B,,"GRAND SABLON",,50.841413,4.353383,,,0,
1377,,"DEUTSCHE SCHULE",,50.852427,4.491947,,,0,
1379,,"ROODEBEEK",,50.847956,4.436126,,,0,
1380,,"LONG-CHENE",,50.853332,4.496851,,,0,
1381,,"LONG-CHENE",,50.853365,4.496515,,,0,
1382,,"ROODEBEEK",,50.847902,4.435729,,,0,
1383,,"ROODEBEEK",,50.848030,4.436032,,,0,
1384,,"ROODEBEEK",,50.848138,4.436066,,,0,
1385,,"ROODEBEEK",,50.847790,4.436351,,,0,
1387,,"DEUTSCHE SCHULE",,50.852518,4.490754,,,0,
1393,,"BIENFAITEURS",,50.858257,4.382675,,,0,
1402B,,"MICHEL-ANGE",,50.845205,4.386602,,,0,
1403,,"JAMBLINNE DE MEUX",,50.847236,4.393729,,,0,
1404,,"VICTOR HUGO",,50.847707,4.397407,,,0,
1406,,"VERGOTE",,50.845754,4.403994,,,0,
1408,,"MONTALD",,50.843986,4.421288,,,0,
1410,,"MELARD",,50.842013,4.428398,,,0,
1411,,"MAX WALLER",,50.805602,4.313003,,,0,
1412,,"VOOT",,50.841014,4.434987,,,0,
1415,,"STADE FALLON",,50.841169,4.443304,,,0,
1416,,"FROISSART",,50.840185,4.382637,,,0,
1417B,,"BREYDEL",,50.841185,4.384678,,,0,
1419,,"GUEUX",,50.847115,4.391358,,,0,
1421,,"SLEGERS",,50.841465,4.432368,,,0,
1422,,"DEPORTES",,50.839795,4.437871,,,0,
1423,,"PARC MALOU",,50.840299,4.440293,,,0,
1424,,"GEORGES HENRI",,50.842274,4.406462,,,0,
1425,,"AMBIORIX",,50.846244,4.384315,,,0,
1427,,"MERCURE",,50.797724,4.354912,,,0,
1429,,"DROSSART",,50.792500,4.351807,,,0,
1430,,"DIEWEG",,50.794963,4.349612,,,0,
1441,,"CHAPELLE",,50.841605,4.350494,,,0,
1442,,"NEERSTALLE",,50.801301,4.317317,,,0,
1443,,"NEERSTALLE",,50.800609,4.317602,,,0,
1444,,"FOREST CENTRE",,50.812173,4.315949,,,0,
1446,,"RUE LONGUE",,50.797010,4.309824,,,0,
1447,,"VICTOR ALLARD",,50.800989,4.329699,,,0,
1448,,"VICTOR GAMBIER",,50.798952,4.333472,,,0,
1449,,"SLEGERS",,50.841452,4.432127,,,0,
1450,,"DEPORTES",,50.839816,4.436724,,,0,
1451,,"PARC MALOU",,50.840567,4.439701,,,0,
1452,,"CARREFOUR STALLE",,50.795638,4.321455,,,0,
1453,,"CALYPSO 2000",,50.803007,4.409778,,,0,
1454,,"VOOT",,50.841361,4.434287,,,0,
1455,,"CALYPSO 2000",,50.803124,4.408998,,,0,
1456,,"MELARD",,50.842347,4.427376,,,0,
1457,,"WAGON",,50.797046,4.328719,,,0,
1458,,"MONTALD",,50.844086,4.421193,,,0,
1459,,"GEORGES HENRI",,50.842922,4.406278,,,0,
1460,,"VERGOTE",,50.845828,4.404551,,,0,
1462,,"VICTOR HUGO",,50.847998,4.398087,,,0,
1463,,"GUEUX",,50.846985,4.390915,,,0,
1464,,"MICHEL-ANGE",,50.845282,4.386558,,,0,
1466,,"HOP. DES ENFANTS",,50.887920,4.327875,,,0,
1467,,"HOP. DES ENFANTS",,50.888569,4.327578,,,0,
1468,,"HELDENPLEIN",,50.926660,4.424904,,,0,
1469,,"HELDENPLEIN",,50.926451,4.425366,,,0,
1470,,"KASSEI",,50.923006,4.415323,,,0,
1472,,"FORESTERIE",,50.786148,4.424840,,,0,
1473,,"KASSEI",,50.923160,4.415841,,,0,
1476,,"FROISSART",,50.840500,4.381885,,,0,
1477B,,"CERIA",,50.816266,4.290209,,,0,
1478,,"CAMPUS CERIA",,50.815856,4.295020,,,0,
1479,,"COLOMBOPHILES",,50.818644,4.298266,,,0,
1480,,"WAXWEILER",,50.823075,4.296755,,,0,
1481,,"ENSOR",,50.920629,4.405630,,,0,
1482,,"RENE HENRY",,50.836154,4.295301,,,0,
1483,,"WESTLAND SHOPPING",,50.837828,4.283771,,,0,
1484,,"POMMIER",,50.835155,4.280397,,,0,
1485,,"ENSOR",,50.921057,4.409300,,,0,
1486B,,"BON AIR",,50.835718,4.275337,,,0,
1487,,"POMMIER",,50.834966,4.280497,,,0,
1488,,"WESTLAND SHOPPING",,50.837674,4.284250,,,0,
1489,,"RENE HENRY",,50.836343,4.295116,,,0,
1490,,"VAN BEETHOVEN",,50.828854,4.293893,,,0,
1491,,"JOZEF BAUS",,50.839511,4.494793,,,0,
1492,,"WAXWEILER",,50.823022,4.297351,,,0,
1493,,"WAUTERS",,50.818515,4.294711,,,0,
1494,,"JOZEF BAUS",,50.839821,4.494327,,,0,
1495,,"VAN BEETHOVEN",,50.828962,4.293893,,,0,
1497B,,"TOULOUSE",,50.843138,4.375982,,,0,
1498,,"HUIT HEURES",,50.820497,4.299327,,,0,
1500,,"MUSEE DU TRAM",,50.832932,4.432063,,,0,
1508,,"MADOU",,50.849102,4.369937,,,0,
1509,,"SAINT-JOSSE",,50.849751,4.374333,,,0,
1510,,"GUTENBERG",,50.849039,4.377279,,,0,
1512,,"VINCOTTE",,50.851620,4.384813,,,0,
1513,,"DAILLY",,50.852473,4.388463,,,0,
1514B,,"RADIUM",,50.852399,4.392447,,,0,
1517,,"HELMET",,50.874969,4.385792,,,0,
1518,,"LEVIE",,50.847919,4.407745,,,0,
1519,,"MAI",,50.848322,4.413496,,,0,
1520,,"HEYDENBERG",,50.848617,4.417628,,,0,
1521,,"SPEECKAERT",,50.848436,4.420326,,,0,
1522,,"VERHEYLEWEGHEN",,50.848165,4.425145,,,0,
1525,,"PEUPLIERS",,50.852894,4.437955,,,0,
1526,,"MARCEL THIRY",,50.855664,4.440581,,,0,
1527,,"JESPERS",,50.857103,4.441439,,,0,
1528,,"HOF TEN BERG",,50.858827,4.438670,,,0,
1529,,"HYMANS",,50.846731,4.431215,,,0,
1530,,"WTC",,50.860360,4.355422,,,0,
1531,,"MARCEL THIRY",,50.855610,4.438959,,,0,
1533,,"GULLEDELLE",,50.855492,4.428179,,,0,
1534,,"CICERON",,50.860617,4.420453,,,0,
1535,,"PADUWA",,50.859649,4.414209,,,0,
1536,,"GARE DU NORD",,50.859190,4.358469,,,0,
1538B,,"DE LOMBAERDE",,50.859742,4.416887,,,0,
1540,,"CHARMILLE",,50.850757,4.434245,,,0,
1541B,,"CAMPUS CERIA",,50.816555,4.292593,,,0,
1544,,"LEOPOLD II",,50.836077,4.412949,,,0,
1545,,"JULES CESAR",,50.834547,4.420311,,,0,
1546,,"CHIEN VERT",,50.834697,4.426884,,,0,
1547,,"BRESIL",,50.802830,4.390317,,,0,
1548B,,"SCHUMAN",,50.841983,4.383759,,,0,
1550,,"CHARMILLE",,50.851026,4.434771,,,0,
1551,,"MARCEL THIRY",,50.854788,4.440301,,,0,
1552,,"JESPERS",,50.857664,4.442065,,,0,
1553,,"MARCEL THIRY",,50.854908,4.438887,,,0,
1554,,"PEUPLIERS",,50.852490,4.437386,,,0,
1556,,"VILVOORDE STATION",,50.924098,4.432294,,,0,
1557,,"VERHEYLEWEGHEN",,50.848321,4.424602,,,0,
1558,,"SPEECKAERT",,50.848604,4.420268,,,0,
1559,,"HEYDENBERG",,50.848725,4.416464,,,0,
1560,,"MAI",,50.848573,4.414546,,,0,
1561,,"LEVIE",,50.848054,4.408895,,,0,
1565B,,"RADIUM",,50.852816,4.392029,,,0,
1566,,"DAILLY",,50.852527,4.388052,,,0,
1567,,"VINCOTTE",,50.851530,4.384174,,,0,
1568,,"CLOVIS",,50.849894,4.381107,,,0,
1569B,,"GUTENBERG",,50.849132,4.377147,,,0,
1570,,"SAINT-JOSSE",,50.849814,4.374063,,,0,
1571,,"MADOU",,50.849743,4.369584,,,0,
1576,,"PRINC. ELISABETH",,50.872992,4.376771,,,0,
1577,,"PRINC. ELISABETH",,50.873218,4.376999,,,0,
1578,,"HYMANS",,50.846876,4.430520,,,0,
1582,,"SAINT-JOSSE",,50.850263,4.374759,,,0,
1584,,"KLAKKEDELLE",,50.846716,4.442702,,,0,
1585,,"VANDERVELDE",,50.847414,4.447702,,,0,
1586,,"ALMA",,50.847868,4.455840,,,0,
1587,,"KRAAINEM",,50.848390,4.459234,,,0,
1590,,"BRESIL",,50.802740,4.390519,,,0,
1591,,"MERODE",,50.838963,4.398537,,,0,
1592,,"GILLON",,50.855891,4.367190,,,0,
1594,,"GLOBE",,50.800674,4.337416,,,0,
1595,,"GLOBE",,50.800560,4.337300,,,0,
1597B,,"CHIREC",,50.817082,4.400814,,,0,
1598B,,"CHIREC",,50.817056,4.399788,,,0,
1599,,"DIELEGHEM",,50.888054,4.319338,,,0,
1600,,"TRIANGLE",,50.850022,4.334696,,,0,
1601,,"REINE ASTRID",,50.848082,4.467057,,,0,
1602,,"VIOLETTES",,50.840730,4.484638,,,0,
1603,,"TRIANGLE",,50.849969,4.334679,,,0,
1604,,"UCCLE CALEVOET",,50.791986,4.332798,,,0,
1605,,"LOUIS MARCELIS",,50.846945,4.483422,,,0,
1606,,"DIELEGHEM",,50.888147,4.319041,,,0,
1607,,"ALPHONSE XIII",,50.791040,4.368950,,,0,
1611,,"GOFFIN",,50.866867,4.308747,,,0,
1615,,"GERGEL",,50.850406,4.486940,,,0,
1616,,"VOISINS",,50.852094,4.481924,,,0,
1617,,"PLAINE DES SPORTS",,50.843555,4.487245,,,0,
1620B,,"HERNALSTEEN",,50.840141,4.489543,,,0,
1621,,"WAGON",,50.796777,4.329332,,,0,
1622,,"WAGON",,50.796845,4.329360,,,0,
1623,,"GARE DE SAINT-JOB",,50.794280,4.362192,,,0,
1625,,"EGLISE WEZEMBEEK",,50.852723,4.482954,,,0,
1628,,"GARE DE LINKEBEEK",,50.774171,4.338487,,,0,
1629,,"OPPEM",,50.835745,4.495689,,,0,
1630,,"DIRECTOIRE",,50.789180,4.359647,,,0,
1632,,"COLLEGE ST-PIERRE",,50.806433,4.340790,,,0,
1633,,"PEYO",,50.810490,4.340145,,,0,
1634,,"GARE DE SAINT-JOB",,50.794282,4.362375,,,0,
1635,,"EGLISE WEZEMBEEK",,50.853658,4.482068,,,0,
1636,,"COGHEN",,50.814107,4.339161,,,0,
1638B,,"KRAAINEM",,50.848754,4.458553,,,0,
1639,,"ALMA",,50.848054,4.455359,,,0,
1640B,,"VANDERVELDE",,50.847620,4.448299,,,0,
1641,,"KLAKKEDELLE",,50.846986,4.443732,,,0,
1643,,"HEROS",,50.803530,4.341640,,,0,
1648,,"COGHEN",,50.814015,4.339060,,,0,
1649,,"PEYO",,50.809923,4.339828,,,0,
1650,,"COLLEGE ST-PIERRE",,50.805949,4.340894,,,0,
1651,,"HEROS",,50.803597,4.342061,,,0,
1652,,"PLACE SAINT-JOB",,50.793728,4.363929,,,0,
1653,,"PLACE SAINT-JOB",,50.793908,4.364326,,,0,
1654,,"PORTE DE NAMUR",,50.839217,4.363777,,,0,
1655,,"HEROS",,50.803244,4.343172,,,0,
1656B,,"HERNALSTEEN",,50.840053,4.488152,,,0,
1657,,"PLAINE DES SPORTS",,50.843201,4.487593,,,0,
1658,,"HEROS",,50.803145,4.342944,,,0,
1659,,"GERGEL",,50.850898,4.486474,,,0,
1662,,"GARE DU MIDI",,50.838508,4.336507,,,0,
1664,,"GARE DU MIDI",,50.838616,4.336440,,,0,
1665,,"HERMES",,50.828595,4.316431,,,0,
1666,,"HERMES",,50.828587,4.315907,,,0,
1667,,"HELMET",,50.873921,4.385518,,,0,
1668,,"VIOLETTES",,50.840347,4.484773,,,0,
1669,,"LOUIS MARCELIS",,50.847023,4.483433,,,0,
1670,,"SUZAN DANIEL",,50.863052,4.347176,,,0,
1671,,"SUZAN DANIEL",,50.863030,4.347661,,,0,
1673,,"REINE ASTRID",,50.848287,4.466527,,,0,
1674F,,"BRUXELLOIS",,50.873581,4.322738,,,0,
1675F,,"BRUXELLOIS",,50.873981,4.322561,,,0,
1676F,,"SQ. DU CENTENAIRE",,50.875999,4.318701,,,0,
1677F,,"SQ. DU CENTENAIRE",,50.876295,4.318299,,,0,
1678F,,"EXPOSITION",,50.879669,4.315958,,,0,
1679F,,"EXPOSITION",,50.880061,4.315951,,,0,
1680F,,"ANCIENNE BARRIERE",,50.885354,4.316858,,,0,
1681F,,"ANCIENNE BARRIERE",,50.885472,4.316281,,,0,
1682F,,"UZ BRUSSEL",,50.886340,4.311669,,,0,
1683F,,"UZ BRUSSEL",,50.886652,4.311336,,,0,
1684F,,"UZ-PEDIATRIE",,50.889498,4.309422,,,0,
1685F,,"UZ-PEDIATRIE",,50.890081,4.309188,,,0,
1686F,,"ARBRE BALLON",,50.892923,4.312960,,,0,
1687F,,"ARBRE BALLON",,50.892997,4.315058,,,0,
1689F,,"DE HEYN",,50.893478,4.319755,,,0,
1690F,,"PALFIJN",,50.894070,4.325231,,,0,
1691F,,"PALFIJN",,50.893998,4.325572,,,0,
1692F,,"STADE",,50.893840,4.331185,,,0,
1693F,,"STADE",,50.894154,4.331475,,,0,
1695F,,"ROI BAUDOUIN",,50.896310,4.329465,,,0,
1695G,,"ROI BAUDOUIN",,50.896084,4.329767,,,0,
1696F,,"COTEAUX",,50.859872,4.375848,,,0,
1697,,"COTEAUX",,50.859744,4.376436,,,0,
1698F,,"COTEAUX",,50.859573,4.376816,,,0,
1700,,"ANATOLE FRANCE",,50.876484,4.385861,,,0,
1705,,"PARC",,50.847831,4.362831,,,0,
1706,,"IDALIE",,50.835920,4.372487,,,0,
1707,,"SAINT-GERY",,50.847746,4.345838,,,0,
1708,,"COMBAZ",,50.825241,4.338686,,,0,
1711,,"BONAVENTURE",,50.885563,4.322378,,,0,
1712,,"FETIS",,50.833227,4.385801,,,0,
1713,,"LA CHASSE",,50.830880,4.389320,,,0,
1714,,"BUEDTS",,50.828191,4.393776,,,0,
1715,,"ARSENAL",,50.826393,4.396727,,,0,
1716,,"STRATEGIE",,50.824135,4.400458,,,0,
1717,,"ROCHEFORT",,50.824316,4.335555,,,0,
1718B,,"EGLISE ST-JULIEN",,50.820617,4.409552,,,0,
1719,,"VANDROMME",,50.819093,4.414807,,,0,
1720B,,"VALDUC",,50.817395,4.421282,,,0,
1721,,"UZ-PEDIATRIE",,50.889890,4.309199,,,0,
1722,,"UZ BRUSSEL",,50.886396,4.311083,,,0,
1723B,,"SCHOONEJANS",,50.811714,4.432757,,,0,
1724,,"SACRE-COEUR",,50.809887,4.436147,,,0,
1725,,"TRANSVAAL",,50.808245,4.435562,,,0,
1726,,"LOUISE",,50.835924,4.356089,,,0,
1727,,"UZ-VUB",,50.886007,4.308504,,,0,
1728,,"MUSEUM",,50.835745,4.377170,,,0,
1729,,"SCIENCE",,50.839842,4.369371,,,0,
1730,,"ROCHEFORT",,50.824363,4.336042,,,0,
1731,,"AUDERGHEM-SHOP.",,50.816646,4.425399,,,0,
1732,,"UZ-VUB",,50.885712,4.308952,,,0,
1733,,"ETANGS",,50.835493,4.380861,,,0,
1734,,"TRONE",,50.840638,4.364821,,,0,
1735,,"COMBAZ",,50.825276,4.339113,,,0,
1736,,"DE WANSIJN",,50.792251,4.359013,,,0,
1737,,"DROSSART",,50.791920,4.351576,,,0,
1738,,"DROSSART",,50.791920,4.351675,,,0,
1739,,"DE WANSIJN",,50.792486,4.359972,,,0,
1740,,"WIELS",,50.824145,4.325624,,,0,
1742,,"NEERSTALLE",,50.799658,4.315349,,,0,
1743,,"UZ BRUSSEL",,50.886729,4.311452,,,0,
1744,,"UZ-PEDIATRIE",,50.889696,4.309404,,,0,
1746,,"BONAVENTURE",,50.884648,4.322212,,,0,
1747,,"SQ. DU CENTENAIRE",,50.875668,4.318538,,,0,
1750,,"BERVOETS",,50.818148,4.321122,,,0,
1751,,"AUDERGHEM-SHOP.",,50.816872,4.424406,,,0,
1752,,"SACRE-COEUR",,50.810343,4.435688,,,0,
1753,,"SCHOONEJANS",,50.811842,4.432488,,,0,
1754,,"HERRMANN-DEBROUX",,50.812487,4.428388,,,0,
1755,,"BONAVENTURE",,50.885043,4.321743,,,0,
1756B,,"VALDUC",,50.817791,4.419710,,,0,
1757,,"VANDROMME",,50.819006,4.415298,,,0,
1758B,,"EGLISE ST-JULIEN",,50.821065,4.408234,,,0,
1759,,"BERVOETS",,50.818091,4.321627,,,0,
1760,,"STRATEGIE",,50.823982,4.400869,,,0,
1762,,"BUEDTS",,50.828506,4.393350,,,0,
1763,,"FOREST NATIONAL",,50.810486,4.326033,,,0,
1764,,"FETIS",,50.833029,4.386241,,,0,
1765,,"DECROLY",,50.805087,4.327403,,,0,
1766,,"FIRMIN LECHARLIER",,50.871086,4.330171,,,0,
1767,,"LEOPOLD I",,50.872802,4.328702,,,0,
1768,,"BONAVENTURE",,50.884961,4.322729,,,0,
1769B,,"MUSEUM",,50.835839,4.374913,,,0,
1775,,"LEOPOLD I",,50.873069,4.328503,,,0,
1776,,"SCIENCE",,50.839925,4.369258,,,0,
1777B,,"ETANGS",,50.835875,4.379721,,,0,
1778,,"ARSENAL",,50.825421,4.398275,,,0,
1779,,"ARSENAL",,50.825880,4.397704,,,0,
1780,,"TRONE",,50.841846,4.364798,,,0,
1781,,"GRAND-PLACE",,50.845003,4.351728,,,0,
1782,,"FIRMIN LECHARLIER",,50.870978,4.330174,,,0,
1788B,,"GUILL. DE GREEF",,50.882563,4.335713,,,0,
1789,,"DELTA",,50.818442,4.405706,,,0,
1790,,"BEAULIEU",,50.814784,4.408740,,,0,
1791,,"PECHERIES",,50.814247,4.417098,,,0,
1792,,"MERCHTEM",,50.858268,4.336469,,,0,
1793,,"ETANGS NOIRS",,50.857124,4.331650,,,0,
1795,,"BEAULIEU",,50.815159,4.408520,,,0,
1801,,"PORTE DE HAL",,50.833143,4.342664,,,0,
1802,,"NERVIENS",,50.838755,4.385732,,,0,
1803B,,"LEMAN",,50.837065,4.386640,,,0,
1804,,"LOUIS HAP",,50.834350,4.388044,,,0,
1805F,,"LA CHASSE",,50.831049,4.390575,,,0,
1806,,"ONZE NOVEMBRE",,50.832789,4.395101,,,0,
1807,,"ROI VAINQUEUR",,50.832260,4.398901,,,0,
1808,,"BOILEAU",,50.832118,4.405111,,,0,
1809,,"BOILEAU",,50.831532,4.404636,,,0,
1810,,"BARON DE CASTRO",,50.828744,4.407946,,,0,
1811,,"DREVE DE NIVELLES",,50.826613,4.411843,,,0,
1812,,"MOUETTES",,50.824949,4.414481,,,0,
1813,,"CHANT D'OISEAU",,50.827185,4.418220,,,0,
1814B,,"OCEAN ATLANTIQUE",,50.830501,4.418486,,,0,
1815,,"MOSTINCK",,50.833278,4.423319,,,0,
1816,,"CHIEN VERT",,50.834522,4.427014,,,0,
1818,,"KELLE",,50.831355,4.438019,,,0,
1819,,"MERTENS",,50.831502,4.443557,,,0,
1820,,"DE BROUCKERE",,50.850478,4.351300,,,0,
1821,,"RUE AU BOIS",,50.831349,4.452485,,,0,
1822,,"MANOIR D'ANJOU",,50.828395,4.456118,,,0,
1823,,"VANDER MEERSCHEN",,50.825859,4.457146,,,0,
1824,,"PORTE DE NAMUR",,50.839652,4.364629,,,0,
1825,,"SAINTE-ALIX",,50.828376,4.463049,,,0,
1826,,"PADDOCK",,50.832598,4.463862,,,0,
1828,,"GERSIS",,50.841322,4.459728,,,0,
1829,,"VAL DES SEIGNEURS",,50.842242,4.456536,,,0,
1830,,"KONKEL",,50.842081,4.450887,,,0,
1831,,"DON BOSCO",,50.841399,4.448927,,,0,
1832,,"DON BOSCO",,50.841533,4.449168,,,0,
1833B,,"STADE FALLON",,50.841321,4.443688,,,0,
1834,,"MAREYDE",,50.832914,4.446811,,,0,
1835,,"BOULEAUX",,50.836926,4.467474,,,0,
1840,,"BOULEAUX",,50.836980,4.467214,,,0,
1841,,"MAREYDE",,50.832842,4.446584,,,0,
1846,,"VAL DES SEIGNEURS",,50.841945,4.456930,,,0,
1847,,"GERSIS",,50.841108,4.459907,,,0,
1850,,"PADDOCK",,50.833162,4.463477,,,0,
1851,,"SAINTE-ALIX",,50.828542,4.462659,,,0,
1852,,"VANDER MEERSCHEN",,50.825841,4.456976,,,0,
1853,,"MANOIR D'ANJOU",,50.829269,4.455366,,,0,
1854,,"RUE AU BOIS",,50.831076,4.452242,,,0,
1855,,"EGLISE ST-SERVAIS",,50.863846,4.373312,,,0,
1856,,"MERTENS",,50.831564,4.443634,,,0,
1857,,"KELLE",,50.831400,4.437821,,,0,
1859,,"CHIEN VERT",,50.834884,4.429254,,,0,
1860,,"JULES CESAR",,50.833549,4.420338,,,0,
1861,,"OCEAN ATLANTIQUE",,50.830996,4.418354,,,0,
1862,,"CHANT D'OISEAU",,50.827961,4.418128,,,0,
1863,,"MOUETTES",,50.825020,4.415290,,,0,
1864,,"DREVE DE NIVELLES",,50.826031,4.412728,,,0,
1865,,"BARON DE CASTRO",,50.828780,4.408268,,,0,
1866,,"BOILEAU",,50.832162,4.404083,,,0,
1867,,"VAN HAELEN",,50.780335,4.325575,,,0,
1868,,"ROI VAINQUEUR",,50.832883,4.398917,,,0,
1869,,"ONZE NOVEMBRE",,50.832786,4.395933,,,0,
1870,,"LA CHASSE",,50.831161,4.389874,,,0,
1871B,,"LOUIS HAP",,50.834694,4.388065,,,0,
1872,,"LEMAN",,50.836671,4.387043,,,0,
1872B,,"LEMAN",,50.837284,4.386689,,,0,
1873,,"NERVIENS",,50.839106,4.385817,,,0,
1874,,"JULES CESAR",,50.834987,4.420562,,,0,
1875,,"LEOPOLD II",,50.836284,4.415514,,,0,
1880,,"VARIA",,50.834405,4.378150,,,0,
1881,,"BLYCKAERTS",,50.833022,4.375424,,,0,
1882,,"FROISSART",,50.839665,4.383621,,,0,
1883,,"VARIA",,50.834163,4.377866,,,0,
1884,,"BLYCKAERTS",,50.832713,4.374968,,,0,
1893,,"BORDET STATION",,50.877616,4.409348,,,0,
1894,,"BOURSE",,50.849296,4.348710,,,0,
1895,,"BOURSE",,50.849239,4.348391,,,0,
1900,,"GARE DU NORD",,50.860080,4.360273,,,0,
1903,,"BIARRITZ",,50.825678,4.369486,,,0,
1904,,"ROGIER",,50.855575,4.358297,,,0,
1906,,"IDALIE",,50.835179,4.372173,,,0,
1909,,"BLYCKAERTS",,50.832940,4.374842,,,0,
1910,,"MALIBRAN",,50.830855,4.373536,,,0,
1912,,"VLEURGAT",,50.823557,4.367669,,,0,
1913,,"VAN EYCK",,50.819647,4.366233,,,0,
1914,,"PATTON",,50.817394,4.366481,,,0,
1915,,"BASCULE",,50.815338,4.367106,,,0,
1916,,"LONGCHAMP",,50.812034,4.367336,,,0,
1917,,"GOSSART",,50.811096,4.362452,,,0,
1918,,"MONTJOIE",,50.809738,4.365162,,,0,
1919,,"RENE GOBERT",,50.806357,4.366364,,,0,
1920,,"FLORIDE",,50.803796,4.361786,,,0,
1921,,"HOUZEAU",,50.804353,4.356523,,,0,
1926B,,"RITTWEGER",,50.798185,4.336239,,,0,
1926G,,"RITTWEGER",,50.798185,4.336239,,,0,
1929,,"ENGELAND",,50.789477,4.333814,,,0,
1935,,"BRAVES",,50.773299,4.336027,,,0,
1936,,"GARE DE LINKEBEEK",,50.774094,4.338942,,,0,
1938,,"HOMBORCH",,50.779610,4.338295,,,0,
1942,,"STATUAIRES",,50.803921,4.349047,,,0,
1943,,"STATUAIRES",,50.803912,4.349486,,,0,
1944,,"HOSPICES",,50.776778,4.339069,,,0,
1949,,"ENGELAND",,50.788995,4.334455,,,0,
1951,,"HEROS",,50.803306,4.342621,,,0,
1953,,"CABRIS",,50.776272,4.342435,,,0,
1954,,"GARE DE LINKEBEEK",,50.774085,4.338772,,,0,
1955,,"BRAVES",,50.773632,4.335874,,,0,
1957B,,"MOENSBERG GARE",,50.779087,4.332411,,,0,
1958B,,"GRIOTTES",,50.780910,4.332439,,,0,
1959,,"BIGARREAUX",,50.784023,4.332988,,,0,
1961B,,"ENGELAND",,50.788940,4.334006,,,0,
1961G,,"ENGELAND",,50.788940,4.334006,,,0,
1962,,"UCCLE CALEVOET",,50.791242,4.332898,,,0,
1962F,,"UCCLE CALEVOET",,50.791224,4.332898,,,0,
1963,,"VIEUX CHEMIN",,50.776441,4.334839,,,0,
1964,,"RITTWEGER",,50.797648,4.336207,,,0,
1964F,,"RITTWEGER",,50.797648,4.336207,,,0,
1965,,"BOURDON",,50.787330,4.330532,,,0,
1968,,"ZEECRABBE",,50.804313,4.354864,,,0,
1969,,"HOUZEAU",,50.804084,4.358041,,,0,
1970,,"FLORIDE",,50.803733,4.361942,,,0,
1971,,"RENE GOBERT",,50.806745,4.366326,,,0,
1972,,"MONTJOIE",,50.810053,4.364538,,,0,
1973,,"GOSSART",,50.811068,4.362587,,,0,
1975,,"BASCULE",,50.816034,4.366957,,,0,
1976,,"VAN EYCK",,50.821452,4.366581,,,0,
1977,,"VLEURGAT",,50.823501,4.367848,,,0,
1980,,"MALIBRAN",,50.830576,4.373493,,,0,
1981,,"BLYCKAERTS",,50.833175,4.374767,,,0,
1983,,"IDALIE",,50.836394,4.370789,,,0,
1984G,,"GLOBE",,50.800544,4.337110,,,0,
1985G,,"GLOBE",,50.800687,4.337586,,,0,
1986,,"BIARRITZ",,50.825853,4.369757,,,0,
1988B,,"ROGIER",,50.855850,4.358545,,,0,
1989,,"PETER BENOIT",,50.895843,4.388548,,,0,
2002,,"PLACE SAINT-JOB",,50.793512,4.366737,,,0,
2009,,"ROND-PT SOUVERAIN",,50.818551,4.427289,,,0,
2010,,"PLACE SAINT-JOB",,50.793389,4.366686,,,0,
2014,,"PARC SENY",,50.808319,4.427192,,,0,
2015,,"VIADUC E40",,50.866116,4.453828,,,0,
2016,,"DRIES",,50.803869,4.399600,,,0,
2017,,"SAINT-ANTOINE",,50.862491,4.457417,,,0,
2018,,"FUTAIE",,50.801479,4.396951,,,0,
2022,,"THIRY-WOLUWE",,50.854805,4.445186,,,0,
2025B,,"ANNECY",,50.860190,4.454900,,,0,
2026,,"TENREUKEN",,50.804848,4.426382,,,0,
2027,,"DUNETTE",,50.852563,4.455372,,,0,
2028,,"THIRY-WOLUWE",,50.853935,4.443430,,,0,
2029,,"THUMAS",,50.864124,4.456697,,,0,
2037,,"CLINIQUES-UCL",,50.851204,4.451656,,,0,
2038,,"AUDITOIRES-UCL",,50.850663,4.454183,,,0,
2039,,"MOUNIER",,50.850310,4.457931,,,0,
2041,,"MOUNIER",,50.850255,4.458513,,,0,
2042,,"AUDITOIRES-UCL",,50.850690,4.454112,,,0,
2043,,"CLINIQUES-UCL",,50.851276,4.451528,,,0,
2046,,"HERRMANN-DEBROUX",,50.812357,4.429112,,,0,
2050,,"HERRMANN-DEBROUX",,50.812231,4.429126,,,0,
2058,,"ROND-PT SOUVERAIN",,50.818479,4.427715,,,0,
2069,,"UCL SAINT-LUC",,50.852840,4.452738,,,0,
2070,,"DE BROUCKERE",,50.853196,4.353646,,,0,
2071B,,"ANNECY",,50.859990,4.454882,,,0,
2072,,"KARREVELD",,50.858405,4.318501,,,0,
2073,,"KARREVELD",,50.857615,4.319550,,,0,
2074,,"FUTAIE",,50.801644,4.396923,,,0,
2076,,"DRIES",,50.804133,4.400260,,,0,
2077,,"TENREUKEN",,50.805087,4.426706,,,0,
2078,,"SAINT-ANTOINE",,50.863047,4.457565,,,0,
2079,,"WATERMAEL GARE",,50.809788,4.399271,,,0,
2080,,"WATERMAEL GARE",,50.809661,4.399387,,,0,
2081,,"OSSEGHEM",,50.856927,4.325319,,,0,
2082,,"OSSEGHEM",,50.857009,4.325340,,,0,
2084,,"UCL SAINT-LUC",,50.852840,4.452738,,,0,
2085,,"DUNETTE",,50.852563,4.455371,,,0,
2086,,"PARC SENY",,50.809130,4.427589,,,0,
2087,,"THUMAS",,50.864773,4.456784,,,0,
2088,,"DESTOUVELLES",,50.866428,4.358560,,,0,
2089,,"DESTOUVELLES",,50.866227,4.358283,,,0,
2090,,"WILLEBROEK",,50.864497,4.354843,,,0,
2091,,"WILLEBROEK",,50.864589,4.355012,,,0,
2092,,"CROIX DE GUERRE",,50.894611,4.390838,,,0,
2093,,"CROIX DE GUERRE",,50.894753,4.391357,,,0,
2094,,"VERGER",,50.891237,4.383800,,,0,
2095,,"VERGER",,50.891445,4.384563,,,0,
2096,,"DOCKS BRUXSEL",,50.879227,4.375066,,,0,
2097,,"COLIGNON",,50.867252,4.372886,,,0,
2098,,"COLIGNON",,50.866692,4.373226,,,0,
2099,,"GAZELLE",,50.782011,4.341228,,,0,
2100,,"VOLTAIRE",,50.867061,4.379705,,,0,
2101,,"VOLTAIRE",,50.867265,4.380029,,,0,
2102,,"CROSSING",,50.864943,4.380714,,,0,
2103,,"VERREWINKEL",,50.778337,4.354473,,,0,
2104,,"GUI",,50.782621,4.357010,,,0,
2105,,"BREMER",,50.855967,4.383582,,,0,
2106,,"BREMER",,50.855640,4.384072,,,0,
2107,,"BIEN-FAIRE",,50.806201,4.400576,,,0,
2108,,"PLACE SAINT-JOB",,50.794519,4.366122,,,0,
2109B,,"VIVIER D'OIE",,50.795803,4.372407,,,0,
2112,,"PASTEUR",,50.780305,4.349198,,,0,
2115,,"BIEN-FAIRE",,50.806250,4.400630,,,0,
2116B,,"SAINTE-ALLIANCE",,50.779228,4.364342,,,0,
2117B,,"NAPOLEON",,50.779259,4.376415,,,0,
2118B,,"PRINCE D'ORANGE",,50.780738,4.380476,,,0,
2119,,"VAN BEVER",,50.783459,4.379204,,,0,
2120,,"RONCES",,50.787661,4.375822,,,0,
2122,,"GEORGES BRUGMANN",,50.817163,4.354632,,,0,
2123,,"CAVELL",,50.811716,4.357429,,,0,
2124,,"BRUNARD",,50.808012,4.357118,,,0,
2125,,"LANGEVELD",,50.806502,4.357331,,,0,
2131,,"LANGEVELD",,50.806358,4.357586,,,0,
2132,,"BRUNARD",,50.807958,4.357175,,,0,
2133,,"CAVELL",,50.811185,4.357628,,,0,
2134,,"GEORGES BRUGMANN",,50.816833,4.354964,,,0,
2136,,"FORT-JACO",,50.789323,4.375020,,,0,
2137,,"RACING",,50.792451,4.374226,,,0,
2138B,,"VIVIER D'OIE",,50.794875,4.373693,,,0,
2140,,"RACING",,50.792721,4.374056,,,0,
2142,,"FORT-JACO",,50.789598,4.374857,,,0,
2143B,,"RONCES",,50.786822,4.376323,,,0,
2144,,"VAN BEVER",,50.784311,4.378350,,,0,
2145,,"PRINCE D'ORANGE",,50.781196,4.380889,,,0,
2146,,"NAPOLEON",,50.778634,4.373884,,,0,
2147B,,"SAINTE-ALLIANCE",,50.779147,4.365320,,,0,
2148,,"FORT-JACO",,50.788971,4.373792,,,0,
2150,,"FORT-JACO",,50.789620,4.372651,,,0,
2153,,"DIRECTOIRE",,50.789605,4.359525,,,0,
2156,,"GUI",,50.782373,4.356859,,,0,
2157,,"VERREWINKEL",,50.778040,4.354289,,,0,
2158B,,"PAMPOEL",,50.870326,4.305265,,,0,
2159B,,"PAMPOEL",,50.870839,4.304048,,,0,
2160,,"NEREUS",,50.872959,4.315007,,,0,
2161,,"PASTEUR",,50.780341,4.349113,,,0,
2162,,"NEREUS",,50.872878,4.314714,,,0,
2163,,"BOULE ET BILL",,50.889448,4.322644,,,0,
2164,,"BOULE ET BILL",,50.889412,4.322303,,,0,
2165,,"JEANNE HERREMAN",,50.794343,4.334300,,,0,
2165F,,"JEANNE HERREMAN",,50.794352,4.334285,,,0,
2166,,"JEANNE HERREMAN",,50.794092,4.334203,,,0,
2166F,,"JEANNE HERREMAN",,50.794092,4.334203,,,0,
2167,,"GAZELLE",,50.782155,4.341157,,,0,
2168,,"HOMBORCH",,50.779458,4.338791,,,0,
2170,,"EMILE DELVA",,50.876959,4.342083,,,0,
2171,,"EMILE DELVA",,50.876904,4.342176,,,0,
2173,,"TERDELT",,50.868579,4.389682,,,0,
2174,,"TERDELT",,50.868582,4.389962,,,0,
2176,,"BASILIX",,50.872416,4.297737,,,0,
2177,,"LOUISE",,50.836150,4.355323,,,0,
2200F,,"MABRU",,50.874909,4.363098,,,0,
2207,,"GLIBERT",,50.864233,4.357417,,,0,
2209,,"NICOLAY",,50.858919,4.354478,,,0,
2212,,"BOURSE",,50.848383,4.346700,,,0,
2213,,"BUANDERIE",,50.846143,4.342782,,,0,
2215,,"LIVERPOOL",,50.843561,4.333980,,,0,
2216,,"CLEMENCEAU",,50.841816,4.329864,,,0,
2217,,"ALBERT I",,50.839134,4.322911,,,0,
2217F,,"ALBERT I",,50.839153,4.322924,,,0,
2218,,"CUREGHEM",,50.836803,4.318060,,,0,
2218F,,"CUREGHEM",,50.836813,4.318029,,,0,
2220F,,"RESISTANCE",,50.835640,4.311456,,,0,
2221,,"DE BERLAIMONT",,50.849859,4.360204,,,0,
2225,,"ARISTIDE BRIAND",,50.828805,4.303346,,,0,
2226,,"VAN KALKEN",,50.826586,4.304877,,,0,
2237,,"MASUI",,50.869410,4.363255,,,0,
2238,,"STEPHENSON",,50.869537,4.367204,,,0,
2239,,"PAVILLON",,50.869824,4.371196,,,0,
2241G,,"MEISER",,50.855501,4.395892,,,0,
2242F,,"MEISER",,50.855222,4.397014,,,0,
2243F,,"MEISER",,50.854907,4.398704,,,0,
2246F,,"MEISER",,50.854421,4.398959,,,0,
2247,,"MEISER",,50.853976,4.397888,,,0,
2248,,"MEISER",,50.855289,4.397253,,,0,
2249,,"MEISER",,50.855137,4.397045,,,0,
2250,,"MEISER",,50.853963,4.397794,,,0,
2252,,"ARISTIDE BRIAND",,50.828949,4.302693,,,0,
2254,,"MEIR",,50.832176,4.302034,,,0,
2257G,,"RESISTANCE",,50.835721,4.312172,,,0,
2259,,"CUREGHEM",,50.837022,4.318582,,,0,
2259F,,"CUREGHEM",,50.837038,4.318582,,,0,
2260,,"ALBERT I",,50.839213,4.323316,,,0,
2260F,,"ALBERT I",,50.839207,4.323336,,,0,
2261,,"CLEMENCEAU",,50.841816,4.330106,,,0,
2262,,"LIVERPOOL",,50.843741,4.335201,,,0,
2264,,"BUANDERIE",,50.846737,4.343922,,,0,
2269,,"NICOLAY",,50.859189,4.354777,,,0,
2271,,"GLIBERT",,50.864161,4.357517,,,0,
2283,,"MONTGOMERY",,50.837038,4.408147,,,0,
2285G,,"MONTGOMERY",,50.838041,4.405536,,,0,
2286G,,"MONTGOMERY",,50.837987,4.405848,,,0,
2287,,"MONTGOMERY",,50.838007,4.406021,,,0,
2289,,"MONTGOMERY",,50.837841,4.407085,,,0,
2290B,,"HANKAR",,50.821815,4.405568,,,0,
2291B,,"HANKAR",,50.821725,4.405707,,,0,
2292B,,"GARE DE HAREN-SUD",,50.889968,4.414876,,,0,
2294B,,"GARE DE HAREN-SUD",,50.889600,4.416634,,,0,
2296,,"ARENBERG",,50.848166,4.356478,,,0,
2301,,"ARENBERG",,50.849265,4.356881,,,0,
2305,,"ENTREPOT",,50.868341,4.353197,,,0,
2306,,"DECROLY",,50.805452,4.327340,,,0,
2318G,,"MABRU",,50.876330,4.364520,,,0,
2319,,"HOPITAL BRACOPS",,50.833458,4.295192,,,0,
2323,,"MEIR",,50.833035,4.302810,,,0,
2327,,"RIVE GAUCHE",,50.890381,4.391322,,,0,
2331F,,"BARRIERE",,50.827158,4.344041,,,0,
2333,,"BARRIERE",,50.826834,4.344013,,,0,
2334B,,"BARRIERE",,50.826762,4.343545,,,0,
2335F,,"MASUI",,50.870102,4.361924,,,0,
2337F,,"DOCKS BRUXSEL",,50.879578,4.371271,,,0,
2338F,,"DOCKS BRUXSEL",,50.879398,4.370675,,,0,
2343F,,"MASUI",,50.869867,4.362030,,,0,
2345,,"LOUIS BERTRAND",,50.866066,4.384904,,,0,
2346,,"LATINIS",,50.867468,4.386353,,,0,
2351,,"BUYL",,50.818914,4.378791,,,0,
2351F,,"BUYL",,50.818916,4.378789,,,0,
2365,,"VAL MARIA",,50.899893,4.385399,,,0,
2367,,"DOCKS BRUXSEL",,50.879536,4.375408,,,0,
2370,,"ENTREPOT",,50.868610,4.353112,,,0,
2373,,"DE LINDE",,50.835428,4.298979,,,0,
2375,,"HOPITAL BRACOPS",,50.833718,4.295433,,,0,
2378,,"BUDA",,50.908636,4.406829,,,0,
2379,,"BUDA",,50.908554,4.406614,,,0,
2382,,"CERIA",,50.816506,4.290393,,,0,
2384,,"CERIA",,50.816082,4.290149,,,0,
2392,,"BOURSE",,50.846598,4.348295,,,0,
2395,,"LA CHASSE",,50.830979,4.390583,,,0,
2396B,,"BERVOETS",,50.815059,4.318893,,,0,
2397,,"BUYL",,50.817442,4.380672,,,0,
2397F,,"BUYL",,50.817442,4.380672,,,0,
2401F,,"PTE D'ANDERLECHT",,50.845369,4.338892,,,0,
2402,,"PARVIS ST-GILLES",,50.830628,4.344210,,,0,
2403,,"PTE D'ANDERLECHT",,50.844911,4.338679,,,0,
2404,,"COMBAZ",,50.825323,4.338635,,,0,
2405,,"PTE D'ANDERLECHT",,50.844731,4.338892,,,0,
2407,,"LAINE",,50.821348,4.334025,,,0,
2408,,"MONT KEMMEL",,50.820882,4.338183,,,0,
2410,,"ALTITUDE CENT",,50.816239,4.335899,,,0,
2411B,,"DUDEN",,50.814714,4.332679,,,0,
2412,,"DOMAINE",,50.810676,4.329038,,,0,
2414,,"DECROLY",,50.804317,4.327933,,,0,
2415,,"AULNE",,50.802945,4.330492,,,0,
2422,,"DELHOVE",,50.869090,4.316014,,,0,
2423,,"DELHOVE",,50.869063,4.315725,,,0,
2424,,"KRAAINEM-SHOPPING",,50.848040,4.474114,,,0,
2425,,"KRAAINEM-SHOPPING",,50.848221,4.472851,,,0,
2428,,"BORDET STATION",,50.877466,4.408831,,,0,
2429,,"PLEIADES",,50.853841,4.417309,,,0,
2430,,"ANDROMEDE",,50.853057,4.424597,,,0,
2431,,"ANDROMEDE",,50.853057,4.424597,,,0,
2452,,"VICTOR ALLARD",,50.800727,4.327285,,,0,
2453,,"DECROLY",,50.804626,4.328093,,,0,
2455,,"DOMAINE",,50.810911,4.329166,,,0,
2456,,"DUDEN",,50.814768,4.332896,,,0,
2457,,"ALTITUDE CENT",,50.816311,4.336160,,,0,
2459,,"MONT KEMMEL",,50.821104,4.337835,,,0,
2460,,"LAINE",,50.821061,4.334649,,,0,
2462,,"ROCHEFORT",,50.824403,4.336018,,,0,
2463,,"COMBAZ",,50.825317,4.339086,,,0,
2465,,"PARVIS ST-GILLES",,50.830153,4.344556,,,0,
2467,,"PORTE DE HAL",,50.832571,4.344302,,,0,
2470,,"PORTE DE HAL",,50.832111,4.344862,,,0,
2476,,"WESTLAND SHOPPING",,50.838385,4.284139,,,0,
2481,,"MORIS",,50.824070,4.351030,,,0,
2485,,"MORIS",,50.824419,4.349889,,,0,
2488,,"DAUTZENBERG",,50.827628,4.367290,,,0,
2498B,,"DEMINEURS",,50.879164,4.332661,,,0,
2504,,"WOESTE",,50.874395,4.332338,,,0,
2506B,,"MIROIR",,50.871344,4.323532,,,0,
2507,,"SIMPSON",,50.869431,4.321781,,,0,
2508,,"RIETHUISEN",,50.866902,4.320028,,,0,
2509,,"BOSSAERT-BASILIQ.",,50.864744,4.318411,,,0,
2511,,"CIM. DE MOLENBEEK",,50.858628,4.311245,,,0,
2512,,"LEROY",,50.856955,4.308918,,,0,
2513,,"CANDRIES",,50.854999,4.306058,,,0,
2514,,"MACHTENS",,50.851754,4.300460,,,0,
2515B,,"VERBEYST",,50.877071,4.331647,,,0,
2518,,"DE LINDE",,50.835331,4.299476,,,0,
2519,,"RIETHUISEN",,50.867271,4.320070,,,0,
2522,,"PRINCE DE LIEGE",,50.846278,4.298367,,,0,
2523,,"ILE SAINTE-HELENE",,50.823274,4.316581,,,0,
2524,,"CHARROI",,50.822309,4.322634,,,0,
2528,,"VETERINAIRES",,50.832620,4.328908,,,0,
2531,,"GARE DU MIDI",,50.836331,4.337828,,,0,
2532,,"JAKOB SMITS",,50.841453,4.303494,,,0,
2533B,,"BEAUTE",,50.839302,4.307720,,,0,
2534B,,"BROEREN",,50.838325,4.312751,,,0,
2539,,"SUEDE",,50.834096,4.335818,,,0,
2539F,,"SUEDE",,50.834069,4.335790,,,0,
2541,,"PLACE V. HORTA",,50.834784,4.332879,,,0,
2544,,"AVENUE DU ROI",,50.831389,4.332229,,,0,
2544F,,"AVENUE DU ROI",,50.831353,4.332286,,,0,
2545,,"KAREL BOGAERD",,50.881239,4.348305,,,0,
2546,,"WIELS",,50.824159,4.325394,,,0,
2547,,"BOCKSTAEL",,50.877635,4.347781,,,0,
2548,,"IMPRIMERIE",,50.828963,4.329152,,,0,
2548F,,"IMPRIMERIE",,50.828952,4.329208,,,0,
2550,,"VAN KALKEN",,50.827044,4.305009,,,0,
2551,,"CHARROI",,50.822171,4.321734,,,0,
2553,,"ORBAN",,50.827133,4.327205,,,0,
2554,,"BOCKSTAEL",,50.877652,4.347042,,,0,
2555,,"CHARROI",,50.821668,4.321970,,,0,
2556,,"ILE SAINTE-HELENE",,50.823497,4.316113,,,0,
2558,,"BOCKSTAEL",,50.877697,4.347326,,,0,
2560,,"BEAUTE",,50.839281,4.306877,,,0,
2561,,"JAKOB SMITS",,50.841912,4.303236,,,0,
2562B,,"MAISON D'ERASME",,50.837254,4.307401,,,0,
2564B,,"PRINCE DE LIEGE",,50.847402,4.299103,,,0,
2565,,"MACHTENS",,50.851655,4.300702,,,0,
2566B,,"CANDRIES",,50.855561,4.307349,,,0,
2567,,"LEROY",,50.856901,4.309400,,,0,
2568,,"CIM. DE MOLENBEEK",,50.858682,4.311784,,,0,
2569,,"BASTOGNE",,50.862379,4.316595,,,0,
2570,,"BOSSAERT-BASILIQ.",,50.864784,4.318871,,,0,
2571,,"RIETHUISEN",,50.868071,4.321206,,,0,
2572,,"SIMPSON",,50.869995,4.322582,,,0,
2573B,,"MIROIR",,50.871156,4.323703,,,0,
2575,,"WOESTE",,50.874710,4.333290,,,0,
2578,,"ANNEESSENS",,50.845686,4.346176,,,0,
2581,,"ANNEESSENS",,50.845686,4.346176,,,0,
2584B,,"DEMINEURS",,50.879024,4.332441,,,0,
2586,,"VERBEYST",,50.876435,4.330532,,,0,
2587,,"WTC",,50.860782,4.355779,,,0,
2595,,"DE BROUCKERE",,50.850504,4.353890,,,0,
2596,,"DE BROUCKERE",,50.849654,4.352651,,,0,
2598,,"ERASME",,50.815052,4.266326,,,0,
2599,,"EDDY MERCKX",,50.816904,4.279004,,,0,
2600,,"TREFLES",,50.819177,4.283268,,,0,
2601,,"MARIE CURIE",,50.821500,4.284226,,,0,
2602,,"MARTIN LUTH. KING",,50.825555,4.288086,,,0,
2605,,"FRANS HALS",,50.826205,4.289699,,,0,
2606,,"DEBUSSY",,50.827658,4.295798,,,0,
2607,,"VEEWEYDE",,50.828449,4.299611,,,0,
2609,,"RUE LONGUE",,50.796599,4.309433,,,0,
2610,,"DROGENBOS-SHOP.",,50.793372,4.309999,,,0,
2611,,"GILSON",,50.794791,4.306641,,,0,
2612,,"FOREST NATIONAL",,50.809058,4.325217,,,0,
2614,,"MEYLEMEERSCH",,50.815603,4.272953,,,0,
2617,,"VEEWEYDE",,50.828528,4.298556,,,0,
2618,,"DEBUSSY",,50.827578,4.294576,,,0,
2619,,"FRANS HALS",,50.826707,4.290885,,,0,
2620,,"MARTIN LUTH. KING",,50.825307,4.287215,,,0,
2621,,"MARIE CURIE",,50.821824,4.283943,,,0,
2622,,"TREFLES",,50.819542,4.283026,,,0,
2623,,"EDDY MERCKX",,50.817028,4.278602,,,0,
2624,,"MEYLEMEERSCH",,50.816051,4.274660,,,0,
2625,,"ERASME",,50.815259,4.265609,,,0,
2631,,"FORESTOISE",,50.807323,4.326279,,,0,
2632,,"FORESTOISE",,50.807417,4.326368,,,0,
2633,,"GATTI DE GAMOND",,50.807026,4.328460,,,0,
2634,,"GATTI DE GAMOND",,50.807655,4.328317,,,0,
2635F,,"SAINT-LAMBERT",,50.890848,4.344463,,,0,
2636F,,"SAINT-LAMBERT",,50.890867,4.346055,,,0,
2637F,,"SAINT-LAMBERT",,50.889932,4.345032,,,0,
2659,,"GILSON",,50.794746,4.306627,,,0,
2660,,"DROGENBOS-SHOP.",,50.792767,4.308875,,,0,
2661,,"RUE LONGUE",,50.796824,4.309901,,,0,
2662B,,"UCCLE SPORT",,50.798675,4.313548,,,0,
2664,,"UCCLE SPORT",,50.798433,4.312655,,,0,
2670,,"AVENUE DU ROI",,50.831686,4.332853,,,0,
2670F,,"AVENUE DU ROI",,50.831677,4.332853,,,0,
2671,,"SUEDE",,50.834213,4.336102,,,0,
2671F,,"SUEDE",,50.834276,4.336173,,,0,
2672,,"IMPRIMERIE",,50.830004,4.330725,,,0,
2672F,,"IMPRIMERIE",,50.830049,4.330640,,,0,
2675,,"BOILEAU",,50.832321,4.404675,,,0,
2680,,"CLOVIS",,50.850687,4.381504,,,0,
2681,,"TRONE",,50.840086,4.365335,,,0,
2682,,"TRONE",,50.839956,4.366364,,,0,
2695,,"GENEVE",,50.863832,4.403241,,,0,
2698,,"PETILLON",,50.829732,4.403331,,,0,
2701,,"UCCLE CALEVOET",,50.790914,4.332986,,,0,
2702,,"GROELSTVELD",,50.789861,4.338660,,,0,
2704,,"HELLEVELT",,50.792062,4.344201,,,0,
2705,,"CHENAIE",,50.792360,4.348895,,,0,
2708G,,"DIEWEG",,50.796753,4.346159,,,0,
2709F,,"WOLVENDAEL",,50.798310,4.343077,,,0,
2710G,,"MARLOW",,50.801591,4.340593,,,0,
2714,,"HOP.STE-ELISABETH",,50.804785,4.368837,,,0,
2715,,"VERT CHASSEUR",,50.802349,4.372922,,,0,
2717,,"GENDARMES",,50.799184,4.379419,,,0,
2718,,"RESERVOIR",,50.798383,4.385149,,,0,
2719,,"MAELBEEK",,50.844330,4.378052,,,0,
2720F,,"LIEDTS",,50.864422,4.365912,,,0,
2721,,"GENDARMES",,50.799430,4.379302,,,0,
2725,,"BERGOJE",,50.815970,4.429216,,,0,
2726F,,"LIEDTS",,50.864970,4.365599,,,0,
2727,,"DEUX CHAUSSEES",,50.816381,4.434921,,,0,
2728,,"SAINTE-ANNE",,50.818216,4.436542,,,0,
2729,,"DE VILLEGAS",,50.869539,4.307992,,,0,
2730,,"DE VILLEGAS",,50.869728,4.307907,,,0,
2733,,"ANNEESSENS",,50.844886,4.346148,,,0,
2734,,"UNION",,50.819978,4.324912,,,0,
2735,,"UNION",,50.820379,4.326376,,,0,
2736,,"PIERRE DECOSTER",,50.821872,4.329885,,,0,
2737,,"ROUPPE",,50.843186,4.345098,,,0,
2738,,"PIERRE DECOSTER",,50.821996,4.329977,,,0,
2739,,"MADELEINE",,50.843934,4.355164,,,0,
2741,,"HEYSEL",,50.897592,4.334295,,,0,
2742,,"PALAIS 12",,50.899320,4.341281,,,0,
2743,,"PALAIS 12",,50.899089,4.340554,,,0,
2744,,"MANNEKEN-PIS",,50.845749,4.349300,,,0,
2745,,"ESPLANADE",,50.901578,4.347422,,,0,
2746,,"ESPLANADE",,50.901558,4.348599,,,0,
2747,,"BERGDAL",,50.901262,4.355632,,,0,
2748B,,"PRINCE DE LIEGE",,50.846007,4.299509,,,0,
2749,,"BERGDAL",,50.901366,4.355204,,,0,
2750,,"PRINCE DE LIEGE",,50.845829,4.299290,,,0,
2751,,"FORUM",,50.898963,4.357207,,,0,
2752,,"DEUX CHAUSSEES",,50.816390,4.434396,,,0,
2753,,"BERGOJE",,50.816078,4.428918,,,0,
2754,,"OBUS",,50.847316,4.304414,,,0,
2755,,"FORUM",,50.899209,4.357462,,,0,
2756,,"CRAETBOS",,50.896410,4.382687,,,0,
2757C,,"HIPPOD. BOITSFORT",,50.797285,4.394014,,,0,
2758,,"CRAETBOS",,50.896643,4.383384,,,0,
2759,,"RESERVOIR",,50.798554,4.384695,,,0,
2760B,,"GENDARMES",,50.799283,4.379135,,,0,
2762,,"VERT CHASSEUR",,50.801453,4.373590,,,0,
2763,,"HOP.STE-ELISABETH",,50.804883,4.368986,,,0,
2764G,,"MARLOW",,50.800814,4.340910,,,0,
2765,,"WOLVENDAEL",,50.797959,4.343375,,,0,
2766,,"VAL MARIA",,50.900012,4.385067,,,0,
2767,,"ROCHEFORT",,50.824656,4.334986,,,0,
2768,,"OBUS",,50.847423,4.303803,,,0,
2769,,"CHENAIE",,50.792764,4.347278,,,0,
2770,,"HELLEVELT",,50.791613,4.342868,,,0,
2771,,"GROELSTVELD",,50.789913,4.338799,,,0,
2772,,"ROCHEFORT",,50.824506,4.334729,,,0,
2773,,"SERBIE",,50.828334,4.334172,,,0,
2774,,"SERBIE",,50.828579,4.333825,,,0,
2775,,"AVENUE DU ROI",,50.831684,4.333425,,,0,
2776,,"SCHEUT",,50.847192,4.308958,,,0,
2777,,"AVENUE DU ROI",,50.831139,4.333253,,,0,
2778,,"GARE DU MIDI",,50.836172,4.338154,,,0,
2779,,"SCHEUT",,50.847579,4.308958,,,0,
2780,,"GARE DU MIDI",,50.836542,4.339451,,,0,
2781,,"JACQUES BREL",,50.842467,4.317256,,,0,
2782,,"JACQUES BREL",,50.842725,4.317836,,,0,
2783,,"VETERANS COLON.",,50.843485,4.313586,,,0,
2784,,"VETERANS COLON.",,50.843544,4.313384,,,0,
2786F,,"GALLAIT",,50.865384,4.367758,,,0,
2788,,"GARE CENTRALE",,50.845464,4.357538,,,0,
2792B,,"EGLISE ST-SERVAIS",,50.864431,4.371778,,,0,
2801,,"CROCQ",,50.884911,4.329588,,,0,
2803,,"LORGE",,50.882851,4.330870,,,0,
2807,,"PRINCE LEOPOLD",,50.882580,4.341402,,,0,
2808,,"JACOBS FONTAINE",,50.878667,4.342494,,,0,
2809,,"KAREL BOGAERD",,50.881167,4.348134,,,0,
2810,,"ARTISTES",,50.881483,4.354458,,,0,
2811,,"SCHOLA EUROPEA",,50.885467,4.353311,,,0,
2813B,,"DE WAND",,50.895678,4.357282,,,0,
2814,,"PAGODES",,50.895835,4.362800,,,0,
2815B,,"LONG BONNIER",,50.895768,4.365589,,,0,
2816,,"VERSAILLES",,50.896235,4.372264,,,0,
2817,,"BEYSEGHEM",,50.896604,4.377040,,,0,
2819,,"KRUIPWEG",,50.894518,4.380869,,,0,
2822,,"VAL MARIA",,50.899542,4.385206,,,0,
2823B,,"FERME NOS PILIFS",,50.903830,4.386737,,,0,
2824,,"SERRES ROYALES",,50.889193,4.357137,,,0,
2827,,"FERME NOS PILIFS",,50.903020,4.386491,,,0,
2835,,"YSER",,50.857103,4.353201,,,0,
2840,,"MADELEINE",,50.843233,4.354355,,,0,
2842,,"TIRCHER",,50.892546,4.323333,,,0,
2845,,"GARE DE BERCHEM",,50.872317,4.289820,,,0,
2846,,"MARIE DEPAGE",,50.813945,4.356293,,,0,
2847,,"MARIE DEPAGE",,50.814475,4.356109,,,0,
2848F,,"MARGUERITE DURAS",,50.855491,4.346631,,,0,
2849,,"AUDREY HEPBURN",,50.889678,4.316768,,,0,
2850,,"AUDREY HEPBURN",,50.889877,4.315769,,,0,
2851F,,"MARGUERITE DURAS",,50.855619,4.346114,,,0,
2852,,"KRUIPWEG",,50.894800,4.380687,,,0,
2853,,"BEYSEGHEM",,50.896595,4.376599,,,0,
2854,,"VERSAILLES",,50.896271,4.371994,,,0,
2855,,"LONG BONNIER",,50.895813,4.363934,,,0,
2856B,,"PAGODES",,50.897377,4.358959,,,0,
2857C,,"DE WAND",,50.895129,4.357751,,,0,
2860,,"ARTISTES",,50.881564,4.354244,,,0,
2861,,"SCHOLA EUROPEA",,50.885348,4.353234,,,0,
2863,,"JACOBS FONTAINE",,50.878802,4.342708,,,0,
2864,,"GARE DE BERCHEM",,50.872448,4.290775,,,0,
2866,,"GARE DE BERCHEM",,50.872161,4.289982,,,0,
2867,,"HOPITAL BRUGMANN",,50.885793,4.332671,,,0,
2871,,"LORGE",,50.882386,4.331153,,,0,
2873,,"CROCQ",,50.884726,4.330214,,,0,
2874,,"HOPITAL BRUGMANN",,50.885793,4.332671,,,0,
2875,,"SERRES ROYALES",,50.888680,4.356059,,,0,
2876F,,"GALLAIT",,50.866633,4.368738,,,0,
2878F,,"MARIE-CHRISTINE",,50.873726,4.359447,,,0,
2879F,,"MARIE-CHRISTINE",,50.874022,4.359319,,,0,
2895,,"HAREN",,50.892834,4.421413,,,0,
2897,,"MAELBEEK",,50.844330,4.378052,,,0,
2898,,"VERBOEKHOVEN",,50.871074,4.376438,,,0,
2899,,"WITLOOF",,50.901122,4.422301,,,0,
2900,,"FONSON",,50.879033,4.403878,,,0,
2903,,"FONSON",,50.878826,4.403693,,,0,
2905,,"TWYENINCK",,50.896412,4.421346,,,0,
2908B,,"BIPLAN",,50.885733,4.410310,,,0,
2909,,"SAINT-VINCENT",,50.880816,4.403821,,,0,
2910,,"PAIX",,50.877097,4.401905,,,0,
2912,,"NOTRE-DAME",,50.871438,4.399979,,,0,
2915,,"JOSAPHAT",,50.861481,4.392464,,,0,
2918,,"DAILLY",,50.853309,4.388208,,,0,
2919,,"BRABANCONNE",,50.851647,4.387125,,,0,
2920,,"AMBIORIX",,50.847682,4.383747,,,0,
2924,,"OUD-KAPELLEKE",,50.874152,4.403007,,,0,
2925,,"MAELBEEK",,50.843737,4.378322,,,0,
2926,,"BICHON",,50.864482,4.394293,,,0,
2927,,"PARC LEOPOLD",,50.841059,4.378272,,,0,
2928,,"FERNAND COCQ",,50.833057,4.366481,,,0,
2929,,"VANNE",,50.829776,4.364338,,,0,
2931,,"TRINITE",,50.825002,4.357554,,,0,
2932,,"MA CAMPAGNE",,50.822575,4.354304,,,0,
2934A,,"ALBERT",,50.821665,4.341617,,,0,
2935,,"JUPITER",,50.819540,4.336742,,,0,
2936,,"TOURNOI",,50.816169,4.333783,,,0,
2937B,,"MYSTERE",,50.813742,4.330585,,,0,
2948,,"TRONE",,50.840674,4.364886,,,0,
2950,,"PRISON",,50.822511,4.346584,,,0,
2951,,"JUPITER",,50.819611,4.336954,,,0,
2953,,"FOREST NATIONAL",,50.810469,4.326216,,,0,
2954B,,"MYSTERE",,50.813771,4.330839,,,0,
2955,,"TOURNOI",,50.816360,4.333877,,,0,
2957A,,"ALBERT",,50.821413,4.341859,,,0,
2959,,"MA CAMPAGNE",,50.823006,4.353084,,,0,
2960,,"TRINITE",,50.824903,4.358596,,,0,
2962,,"VANNE",,50.829891,4.364010,,,0,
2963,,"FERNAND COCQ",,50.833219,4.366552,,,0,
2964B,,"QUART.ST-BONIFACE",,50.835413,4.363769,,,0,
2965,,"PRISON",,50.822673,4.347875,,,0,
2967B,,"PORTE DE NAMUR",,50.838171,4.361980,,,0,
2971,,"BAILLI",,50.827127,4.363428,,,0,
2972,,"BAILLI",,50.826857,4.362606,,,0,
2974,,"DAILLY",,50.853714,4.388478,,,0,
2977,,"JOSAPHAT",,50.862073,4.392530,,,0,
2980,,"NOTRE-DAME",,50.870872,4.400107,,,0,
2982B,,"PAIX",,50.876696,4.402225,,,0,
2986B,,"TWYENINCK",,50.896196,4.421147,,,0,
2987,,"CORTENBACH",,50.891847,4.418029,,,0,
2988,,"CORTENBACH",,50.892117,4.417902,,,0,
2990,,"BICHON",,50.864311,4.394179,,,0,
2991,,"WITLOOF",,50.901190,4.422883,,,0,
2992,,"SAINT-VINCENT",,50.880880,4.403855,,,0,
2995,,"OUD-KAPELLEKE",,50.874395,4.403505,,,0,
2996,,"CONSCIENCE",,50.869407,4.399921,,,0,
2997,,"CONSCIENCE",,50.867672,4.398627,,,0,
3005,,"TROIS PERTUIS",,50.892136,4.395871,,,0,
3007,,"BIEBUYCK",,50.887790,4.384372,,,0,
3008,,"AVANT-PORT",,50.885567,4.379059,,,0,
3009,,"BORNE",,50.855230,4.335619,,,0,
3014,,"RIVE GAUCHE",,50.890435,4.390484,,,0,
3017,,"BOURGET",,50.878150,4.430334,,,0,
3018,,"BOURGET",,50.878500,4.431073,,,0,
3042,,"MACHELEN",,50.912776,4.432925,,,0,
3046,,"CLEMENCE EVERARD",,50.817588,4.265310,,,0,
3047,,"CLEMENCEAU",,50.842425,4.331170,,,0,
3059,,"BIEBUYCK",,50.887865,4.384613,,,0,
3061,,"TROIS PERTUIS",,50.892025,4.395829,,,0,
3062,,"ROSA PARKS",,50.847297,4.361212,,,0,
3063,,"MARLY",,50.898460,4.401490,,,0,
3072,,"ROSA PARKS",,50.847396,4.361439,,,0,
3074,,"CLEMENCE EVERARD",,50.818299,4.266915,,,0,
3075,,"YSER",,50.857349,4.353526,,,0,
3078,,"CERIA",,50.816248,4.290578,,,0,
3080,,"MARIE-LOUISE",,50.845024,4.377555,,,0,
3081,,"MARIE-LOUISE",,50.845721,4.378078,,,0,
3082,,"ANDREE DE JONGH",,50.871010,4.348892,,,0,
3083,,"ANDREE DE JONGH",,50.870911,4.349332,,,0,
3084,,"AMELIE GOMAND",,50.876455,4.338461,,,0,
3085,,"AMELIE GOMAND",,50.876365,4.338162,,,0,
3086,,"MACHELENSTRAAT",,50.919289,4.425681,,,0,
3087,,"MACHELENSTRAAT",,50.918524,4.424595,,,0,
3098,,"ANATOLE FRANCE",,50.876776,4.385756,,,0,
3099,,"HUART-HAMOIR",,50.876467,4.383458,,,0,
3100,,"GUTENBERG",,50.849049,4.377769,,,0,
3101,,"SAINT-VINCENT",,50.880625,4.401861,,,0,
3102,,"PICARDIE",,50.879537,4.396015,,,0,
3103,,"CARLI",,50.879360,4.393349,,,0,
3104,,"CHAUMONTEL",,50.878452,4.389995,,,0,
3105,,"ZENOBE GRAMME",,50.879766,4.383871,,,0,
3106,,"SCHAERBEEK GARE",,50.877429,4.379182,,,0,
3107,,"SCHAERBEEK GARE",,50.877636,4.379054,,,0,
3109,,"EENENS",,50.867837,4.377148,,,0,
3111,,"HERMAN",,50.863073,4.377446,,,0,
3112,,"COTEAUX",,50.859172,4.377161,,,0,
3113,,"GEEFS",,50.857194,4.375683,,,0,
3114,,"BOSSUET",,50.853828,4.373548,,,0,
3117,,"PARC LEOPOLD",,50.839547,4.380607,,,0,
3118,,"BRAEMT",,50.851243,4.376463,,,0,
3120,,"NATATION",,50.833173,4.378264,,,0,
3121B,,"WERY",,50.829389,4.376161,,,0,
3122,,"FLAGEY",,50.828040,4.371704,,,0,
3123,,"LEVURE",,50.828658,4.376665,,,0,
3125,,"HOP. ETT.-IXELLES",,50.825056,4.380146,,,0,
3126B,,"VANDENHOVEN",,50.882329,4.407346,,,0,
3131,,"LEVURE",,50.827746,4.376628,,,0,
3135,,"FLAGEY",,50.826431,4.372295,,,0,
3150,,"PARC",,50.847560,4.363669,,,0,
3155,,"WERY",,50.829386,4.376211,,,0,
3156,,"NATATION",,50.833087,4.378271,,,0,
3158B,,"JOURDAN",,50.837920,4.381785,,,0,
3159,,"PARC LEOPOLD",,50.839700,4.380593,,,0,
3160,,"ETANGS",,50.836107,4.380853,,,0,
3162,,"HOUWAERT",,50.853203,4.373496,,,0,
3163,,"GEEFS",,50.856933,4.375584,,,0,
3164,,"COTEAUX",,50.859855,4.377757,,,0,
3165,,"HERMAN",,50.863361,4.377360,,,0,
3167,,"EENENS",,50.868215,4.377077,,,0,
3168,,"VERBOEKHOVEN",,50.870876,4.376126,,,0,
3171,,"ZENOBE GRAMME",,50.879820,4.384156,,,0,
3172,,"CHAUMONTEL",,50.878246,4.389711,,,0,
3173,,"CARLI",,50.879288,4.393676,,,0,
3174,,"PICARDIE",,50.879565,4.397072,,,0,
3175B,,"SAINT-VINCENT",,50.880598,4.402159,,,0,
3176,,"VANDENHOVEN",,50.882205,4.407163,,,0,
3177,,"SCHAERBEEK GARE",,50.877375,4.380191,,,0,
3180,,"HUART-HAMOIR",,50.875478,4.382875,,,0,
3183,,"PATRIE",,50.857129,4.390241,,,0,
3184,,"PATRIE",,50.856985,4.390113,,,0,
3185,,"CHAZAL",,50.860536,4.392046,,,0,
3186,,"CHAZAL",,50.859673,4.391520,,,0,
3188,,"GLOBE",,50.799885,4.336446,,,0,
3189,,"XAVIER DE BUE",,50.802727,4.336556,,,0,
3190,,"BENS",,50.806818,4.336758,,,0,
3191,,"XAVIER DE BUE",,50.803193,4.336665,,,0,
3192,,"BENS",,50.806798,4.336843,,,0,
3193,,"MAX WALLER",,50.805705,4.312942,,,0,
3194,,"SAINT-DENIS",,50.809427,4.313018,,,0,
3196,,"SAINT-DENIS",,50.809701,4.313231,,,0,
3199,,"AERODROME",,50.888347,4.425160,,,0,
3200,,"DIABLOTINS",,50.865434,4.421794,,,0,
3201,,"MAES",,50.886466,4.429606,,,0,
3207,,"JULES BORDET",,50.870623,4.418589,,,0,
3210B,,"ARTEMIS",,50.862308,4.416194,,,0,
3211,,"GARE DU MIDI",,50.836739,4.337080,,,0,
3216,,"PLASKY",,50.851141,4.395961,,,0,
3217,,"GUEUX",,50.847320,4.391116,,,0,
3218,,"MARGUERITE",,50.847096,4.387396,,,0,
3219,,"WATERLOO WILSON",,50.847808,4.381205,,,0,
3221,,"DANSAERT",,50.851241,4.344952,,,0,
3222,,"PORTE DE FLANDRE",,50.853020,4.341841,,,0,
3223B,,"PORTE DE NINOVE",,50.850536,4.338749,,,0,
3225,,"QUATRE-VENTS",,50.849177,4.325570,,,0,
3225F,,"QUATRE-VENTS",,50.849177,4.325570,,,0,
3226B,,"DUCHESSE BRABANT",,50.849529,4.329631,,,0,
3226F,,"DUCHESSE BRABANT",,50.849532,4.329607,,,0,
3228F,,"TRIANGLE",,50.849975,4.334359,,,0,
3229,,"EUGENE TOUSSAINT",,50.880576,4.321762,,,0,
3230,,"GARE DE L'OUEST",,50.848852,4.320969,,,0,
3230F,,"GARE DE L'OUEST",,50.848843,4.320969,,,0,
3231,,"JOSEPH BAECK",,50.852158,4.316237,,,0,
3232,,"DUBOIS",,50.851463,4.311353,,,0,
3233,,"TAMARIS",,50.851039,4.307562,,,0,
3234,,"MACHTENS",,50.851314,4.300802,,,0,
3235,,"CANDRIES",,50.855659,4.306405,,,0,
3236,,"THYM",,50.856905,4.303529,,,0,
3237,,"PARC",,50.847651,4.363550,,,0,
3238,,"CONDOR",,50.852395,4.307222,,,0,
3239,,"CONDOR",,50.852694,4.307324,,,0,
3240,,"OPTIMISME",,50.862106,4.409167,,,0,
3244,,"ALBERT II",,50.857532,4.356298,,,0,
3245,,"WTC",,50.861313,4.356188,,,0,
3246,,"BOTANIQUE",,50.853156,4.366166,,,0,
3252,,"TAMARIS",,50.850913,4.307675,,,0,
3253,,"GARE DE L'OUEST",,50.848843,4.321694,,,0,
3253F,,"GARE DE L'OUEST",,50.848843,4.321708,,,0,
3257,,"QUATRE-VENTS",,50.849177,4.326010,,,0,
3257F,,"QUATRE-VENTS",,50.849186,4.326010,,,0,
3259C,,"PORTE DE NINOVE",,50.850470,4.338788,,,0,
3260,,"PORTE DE FLANDRE",,50.852788,4.342186,,,0,
3261,,"DANSAERT",,50.851034,4.345094,,,0,
3263F,,"DUCHESSE BRABANT",,50.849449,4.329370,,,0,
3272,,"PADUWA",,50.859714,4.414957,,,0,
3273,,"ARTEMIS",,50.861570,4.415903,,,0,
3274,,"CIM. DE BRUXELLES",,50.864218,4.418716,,,0,
3276,,"JULES BORDET",,50.870754,4.418774,,,0,
3279,,"SABCA",,50.881753,4.416944,,,0,
3280,,"MIDDELWEG",,50.884148,4.421197,,,0,
3281,,"DUBOIS",,50.851356,4.311680,,,0,
3282,,"JOSEPH BAECK",,50.852036,4.316437,,,0,
3284,,"PEAGE",,50.862153,4.426100,,,0,
3285,,"DIABLOTINS",,50.865371,4.422078,,,0,
3286B,,"VILLON",,50.863401,4.424931,,,0,
3288,,"PEAGE",,50.862418,4.426164,,,0,
3293,,"PANNENHUIS",,50.872812,4.341965,,,0,
3298,,"PATRIE",,50.856815,4.390652,,,0,
3299,,"BIENFAITEURS",,50.858323,4.384610,,,0,
3304,,"MATISSE",,50.874490,4.408610,,,0,
3305,,"LEKAERTS",,50.871628,4.405932,,,0,
3306,,"HOEDEMAEKERS",,50.871958,4.403830,,,0,
3307,,"NOTRE-DAME",,50.871240,4.400462,,,0,
3308F,,"BIENFAITEURS",,50.858308,4.384134,,,0,
3312,,"PANNENHUIS",,50.872596,4.342231,,,0,
3313,,"QUETELET",,50.852798,4.368894,,,0,
3317,,"FUSEE",,50.877382,4.419548,,,0,
3320B,,"BOURSE",,50.849372,4.347381,,,0,
3321,,"FUSEE",,50.877435,4.421296,,,0,
3325,,"MERIDIEN",,50.856412,4.369051,,,0,
3332,,"MADOU",,50.849887,4.369025,,,0,
3337F,,"BOURGET",,50.878401,4.431144,,,0,
3338F,,"BOURGET",,50.878258,4.430263,,,0,
3354,,"PRESSE",,50.848691,4.367960,,,0,
3355,,"MADOU",,50.850084,4.369193,,,0,
3358,,"PRESSE",,50.847976,4.367781,,,0,
3360F,,"BIENFAITEURS",,50.857679,4.384461,,,0,
3361,,"HOEDEMAEKERS",,50.871770,4.403872,,,0,
3362,,"LEKAERTS",,50.872550,4.407565,,,0,
3366,,"PLASKY",,50.850546,4.397406,,,0,
3367,,"PLASKY",,50.850698,4.397163,,,0,
3368,,"SAINT-GUIDON",,50.834693,4.305881,,,0,
3369,,"SAINT-GUIDON",,50.834760,4.306103,,,0,
3370F,,"SAINT-GUIDON",,50.834684,4.305637,,,0,
3371F,,"SAINT-GUIDON",,50.834771,4.306349,,,0,
3372,,"FLAGEY",,50.827114,4.372103,,,0,
3376,,"RESISTANCE",,50.835636,4.311713,,,0,
3377,,"RESISTANCE",,50.835725,4.311911,,,0,
3378,,"DOUVRES",,50.836138,4.314480,,,0,
3379,,"DOUVRES",,50.836048,4.314279,,,0,
3380,,"ROBIANO",,50.860251,4.371221,,,0,
3381,,"PLASKY",,50.850952,4.397026,,,0,
3399,,"SCHUMAN",,50.842675,4.383504,,,0,
3401,,"CIM. DE BRUXELLES",,50.864254,4.418196,,,0,
3402,,"GUILLAUME",,50.861276,4.412642,,,0,
3403,,"DUNANT",,50.865035,4.408995,,,0,
3404,,"LOISIRS",,50.867930,4.406426,,,0,
3405,,"RODTS",,50.790023,4.318206,,,0,
3408,,"LATINIS",,50.867072,4.387035,,,0,
3409,,"LOUIS BERTRAND",,50.866159,4.386086,,,0,
3410,,"CROSSING",,50.865203,4.382190,,,0,
3411,,"KURTH",,50.868904,4.396128,,,0,
3412,,"CROSSING",,50.864559,4.381105,,,0,
3413,,"POUCHKINE",,50.871257,4.345120,,,0,
3414,,"AZALEES",,50.862497,4.380542,,,0,
3415,,"VAN HAELEN",,50.780327,4.325692,,,0,
3417,,"EVERE SHOPPING",,50.867166,4.405886,,,0,
3419,,"CONSCIENCE",,50.868643,4.399693,,,0,
3420,,"OUD-KAPELLEKE",,50.874341,4.403888,,,0,
3424,,"PERMEKE",,50.870897,4.407182,,,0,
3425,,"PERMEKE",,50.870600,4.406414,,,0,
3440,,"DAUTZENBERG",,50.827678,4.367171,,,0,
3444,,"PARC",,50.844610,4.361332,,,0,
3447,,"GINETTE JAVAUX",,50.818694,4.408515,,,0,
3448B,,"GARE D'EVERE",,50.867563,4.401340,,,0,
3449,,"KURTH",,50.868823,4.395744,,,0,
3450,,"EVERE SHOPPING",,50.866770,4.404753,,,0,
3451,,"AZALEES",,50.862596,4.380940,,,0,
3456,,"HENRIETTE LAUWERS",,50.850306,4.483009,,,0,
3457,,"HENRIETTE LAUWERS",,50.850009,4.483008,,,0,
3458,,"LOISIRS",,50.867930,4.406270,,,0,
3459,,"DUNANT",,50.863443,4.410272,,,0,
3460,,"GUILLAUME",,50.861101,4.412554,,,0,
3461,,"PADUWA",,50.859327,4.415634,,,0,
3462,,"CICERON",,50.860355,4.421579,,,0,
3463,,"GULLEDELLE",,50.855565,4.428540,,,0,
3465,,"DE BROUCKERE",,50.852420,4.351157,,,0,
3466,,"EVERE SHOPPING",,50.866394,4.403939,,,0,
3468,,"PAUL LEDUC",,50.860652,4.403700,,,0,
3469,,"DE BROUCKERE",,50.851799,4.350802,,,0,
3470,,"CONSCIENCE",,50.868086,4.398201,,,0,
3480,,"BUYL",,50.819024,4.380329,,,0,
3481,,"BUYL",,50.817420,4.378614,,,0,
3482,,"CIM. DE JETTE",,50.879772,4.334737,,,0,
3483,,"GUILL. DE GREEF",,50.882966,4.336167,,,0,
3484,,"CIM. DE JETTE",,50.879740,4.334586,,,0,
3486,,"BASTOGNE",,50.861416,4.314906,,,0,
3502,,"BOZAR",,50.844123,4.359055,,,0,
3503,,"ROYALE",,50.842487,4.358970,,,0,
3505,,"PORTE DE NAMUR",,50.838945,4.361604,,,0,
3506,,"QUART.ST-BONIFACE",,50.835086,4.363978,,,0,
3507F,,"FLAGEY",,50.826720,4.372343,,,0,
3510B,,"GEO BERNIER",,50.820259,4.377041,,,0,
3513,,"ULB",,50.813926,4.384942,,,0,
3514,,"CIM. D'IXELLES",,50.815966,4.390704,,,0,
3515,,"FRAITEUR",,50.817711,4.396025,,,0,
3517,,"ETANGS D'IXELLES",,50.824140,4.373435,,,0,
3518B,,"PORTE DE NAMUR",,50.837543,4.362009,,,0,
3519,,"FLAGEY",,50.828071,4.371200,,,0,
3520,,"DELTA",,50.816744,4.405058,,,0,
3521,,"BEAULIEU",,50.815977,4.407516,,,0,
3522,,"ADEPS",,50.809849,4.443453,,,0,
3523F,,"ETANGS D'IXELLES",,50.824140,4.373435,,,0,
3524,,"JARDIN MASSART",,50.813398,4.433279,,,0,
3525,,"JEANNE",,50.815284,4.383736,,,0,
3526,,"JARDIN MASSART",,50.813158,4.433902,,,0,
3529,,"ROUGE-CLOITRE",,50.811446,4.439690,,,0,
3530,,"ROUGE-CLOITRE",,50.812363,4.438627,,,0,
3531F,,"GEO BERNIER",,50.820259,4.377041,,,0,
3532F,,"GEO BERNIER",,50.820853,4.376617,,,0,
3535,,"BEERSELLAAN",,50.780573,4.324655,,,0,
3546,,"DELTA",,50.818353,4.405847,,,0,
3548F,,"ETANGS D'IXELLES",,50.823690,4.373961,,,0,
3549,,"VIGNETTE",,50.813655,4.419876,,,0,
3550,,"ROODENBERG",,50.816111,4.416345,,,0,
3551,,"CLESSE",,50.817864,4.411684,,,0,
3552,,"ROODENBERG",,50.816381,4.415721,,,0,
3553,,"CLESSE",,50.817227,4.413423,,,0,
3556,,"DELTA",,50.818237,4.404285,,,0,
3557,,"FRAITEUR",,50.817890,4.396128,,,0,
3558,,"CIM. D'IXELLES",,50.816011,4.390576,,,0,
3559,,"ULB",,50.813899,4.384459,,,0,
3562B,,"GEO BERNIER",,50.820853,4.376617,,,0,
3567,,"ROYALE",,50.842748,4.358813,,,0,
3570,,"ETANGS D'IXELLES",,50.823690,4.373961,,,0,
3572,,"FLAGEY",,50.827754,4.371676,,,0,
3573,,"FLAGEY",,50.828203,4.371163,,,0,
3581,,"BEMPT",,50.802820,4.315237,,,0,
3587,,"ROGIER",,50.854820,4.359592,,,0,
3588,,"GARE DU NORD",,50.858158,4.359492,,,0,
3600,,"HOME HEYDEKEN",,50.875035,4.313561,,,0,
3601,,"HOME HEYDEKEN",,50.875097,4.313015,,,0,
3604,,"BEMPT",,50.802880,4.315322,,,0,
3605,,"PETERBOS",,50.839247,4.296546,,,0,
3606,,"FERNANDE VOLRAL",,50.882663,4.321959,,,0,
3607,,"FERNANDE VOLRAL",,50.882814,4.322101,,,0,
3608,,"FRANS HALS",,50.827061,4.288346,,,0,
3609F,,"PARC VIVES",,50.826152,4.286105,,,0,
3610F,,"MARIUS RENARD",,50.824935,4.281424,,,0,
3611F,,"MARIUS RENARD",,50.824926,4.282034,,,0,
3612F,,"PARC VIVES",,50.825882,4.285623,,,0,
3613F,,"FRANS HALS",,50.827232,4.288942,,,0,
3619B,,"VIER FONTEINEN",,50.914989,4.421061,,,0,
3620B,,"LONDRES",,50.837984,4.368667,,,0,
3623B,,"LONDRES",,50.838038,4.368766,,,0,
3624B,,"LOUISE",,50.834945,4.355876,,,0,
3625B,,"MA CAMPAGNE",,50.823887,4.353452,,,0,
3629,,"POELAERT",,50.838003,4.353594,,,0,
3630,,"GRAND SABLON",,50.842189,4.354148,,,0,
3633C,,"DANSAERT",,50.851142,4.344370,,,0,
3636,,"PETERBOS",,50.838090,4.295876,,,0,
3637,,"MEHDI BOUDA",,50.842438,4.296200,,,0,
3638,,"MEHDI BOUDA",,50.843418,4.295787,,,0,
3639,,"MEHDI BOUDA",,50.844272,4.296382,,,0,
3661,,"CIM. DE BRUXELLES",,50.863368,4.418752,,,0,
3681,,"DIGUE DU CANAL",,50.823973,4.310747,,,0,
3682,,"DIGUE DU CANAL",,50.823802,4.310464,,,0,
3702,,"ARBRE UNIQUE",,50.863667,4.413198,,,0,
3704,,"PAUL LEDUC",,50.860542,4.404673,,,0,
3705,,"FRANS COURTENS",,50.859167,4.401150,,,0,
3707,,"JAMBLINNE DE MEUX",,50.848238,4.395036,,,0,
3712,,"VANHELLEMONT",,50.829471,4.285828,,,0,
3713,,"SCHERDEMAEL",,50.830981,4.289291,,,0,
3717,,"SIBELIUS",,50.833404,4.282615,,,0,
3718,,"NEERPEDE",,50.829351,4.281717,,,0,
3751,,"NEERPEDE",,50.829211,4.281613,,,0,
3752,,"SIBELIUS",,50.833205,4.282502,,,0,
3755,,"SCHERDEMAEL",,50.831225,4.290057,,,0,
3756,,"VANHELLEMONT",,50.829451,4.286071,,,0,
3761,,"LEOPOLD III",,50.857620,4.398496,,,0,
3762,,"FRANS COURTENS",,50.859086,4.401334,,,0,
3763,,"PAUL LEDUC",,50.860595,4.405199,,,0,
3765,,"ARBRE UNIQUE",,50.863775,4.413980,,,0,
3766,,"OPTIMISME",,50.861978,4.409319,,,0,
3800,,"ELOY",,50.835641,4.331204,,,0,
3802,,"VETERINAIRES",,50.833098,4.327990,,,0,
3804,,"DEUX GARES",,50.832053,4.324230,,,0,
3805,,"PETITE ILE",,50.830458,4.319426,,,0,
3808,,"DIGUE DU CANAL",,50.823468,4.308548,,,0,
3810,,"BOLLINCKX",,50.813705,4.306968,,,0,
3812,,"LABEUR",,50.820529,4.308197,,,0,
3814,,"MOZART",,50.810288,4.305160,,,0,
3815,,"MOZART",,50.810729,4.305499,,,0,
3850,,"HUMANITE",,50.810765,4.303466,,,0,
3851,,"BOLLINCKX",,50.813408,4.307128,,,0,
3852,,"DEUX GARES",,50.832052,4.324833,,,0,
3853,,"INTERNATIONAL",,50.816699,4.307634,,,0,
3856,,"DIGUE DU CANAL",,50.824377,4.309924,,,0,
3858,,"PETITE ILE",,50.830575,4.320065,,,0,
3859,,"LABEUR",,50.819864,4.308609,,,0,
3860,,"INTERNATIONAL",,50.816204,4.307848,,,0,
3898,,"PADUWA",,50.858891,4.413634,,,0,
3899,,"MOONENS",,50.848419,4.428830,,,0,
3900,,"SAINTE-FAMILLE",,50.850346,4.427968,,,0,
3902,,"CAPRICORNE",,50.855157,4.420893,,,0,
3903,,"PLEIADES",,50.854016,4.418262,,,0,
3904,,"CARENE",,50.854499,4.414556,,,0,
3905,,"COLONEL BOURG",,50.852523,4.409583,,,0,
3906,,"FEVRIER",,50.850669,4.411340,,,0,
3908,,"HEYDENBERG",,50.849013,4.416848,,,0,
3909,,"SAINTE-FAMILLE",,50.850165,4.427982,,,0,
3910,,"MOONENS",,50.848417,4.428607,,,0,
3911,,"DIVIN SAUVEUR",,50.850357,4.408401,,,0,
3912,,"LEMAN",,50.836831,4.387349,,,0,
3919,,"VERHEYLEWEGHEN",,50.848114,4.424722,,,0,
3920,,"ANDROMEDE",,50.854699,4.425119,,,0,
3921,,"JOURDAN",,50.837471,4.380280,,,0,
3922,,"JOURDAN",,50.836250,4.379636,,,0,
3952,,"FEVRIER",,50.850804,4.410228,,,0,
3953,,"LEMAN",,50.836751,4.386451,,,0,
3954,,"HEYDENBERG",,50.849058,4.417147,,,0,
3956,,"COLONEL BOURG",,50.852440,4.409463,,,0,
3957,,"CARENE",,50.854704,4.415206,,,0,
3958,,"PLEIADES",,50.853929,4.418145,,,0,
3959,,"CAPRICORNE",,50.855180,4.421039,,,0,
3961,,"MOMMAERTS",,50.856880,4.412695,,,0,
3962,,"ANDROMEDE",,50.854456,4.425251,,,0,
4002B,,"BERCHEM-SHOPPING",,50.869581,4.291958,,,0,
4002G,,"BERCHEM-SHOPPING",,50.869625,4.291895,,,0,
4003G,,"ALCYONS",,50.866790,4.294558,,,0,
4005F,,"GENOT",,50.861855,4.301616,,,0,
4006G,,"VAN ZANDE",,50.860179,4.306878,,,0,
4007G,,"CIM. DE MOLENBEEK",,50.858672,4.313261,,,0,
4014,,"BEEKKANT",,50.854243,4.323354,,,0,
4022,,"KARREVELD",,50.856689,4.317397,,,0,
4053G,,"KARREVELD",,50.858190,4.316563,,,0,
4054G,,"CIM. DE MOLENBEEK",,50.859329,4.309795,,,0,
4055G,,"VAN ZANDE",,50.861042,4.304376,,,0,
4058F,,"ALCYONS",,50.867670,4.293704,,,0,
4059,,"BERCHEM-SHOPPING",,50.870405,4.291299,,,0,
4059F,,"BERCHEM-SHOPPING",,50.870599,4.291199,,,0,
4062,,"BOIS DES ILES",,50.873513,4.295042,,,0,
4066,,"GENOT",,50.862808,4.299667,,,0,
4066F,,"GENOT",,50.862809,4.299667,,,0,
4072B,,"DE HEYN",,50.893633,4.320188,,,0,
4074B,,"ETANGS NOIRS",,50.857531,4.334084,,,0,
4075,,"HEROS",,50.803083,4.342578,,,0,
4076,,"HEROS",,50.803083,4.341826,,,0,
4101,,"BASILIX",,50.872707,4.298342,,,0,
4103,,"HET VEROOST",,50.878173,4.304293,,,0,
4104,,"NEUBERGER",,50.876354,4.306682,,,0,
4105,,"NEREUS",,50.872429,4.313118,,,0,
4106,,"SORENSEN",,50.870680,4.311557,,,0,
4107,,"BEECKMANS",,50.869204,4.310398,,,0,
4109,,"CHOPIN",,50.875628,4.300155,,,0,
4110,,"COLLEGE S.-COEUR",,50.868263,4.316066,,,0,
4111,,"ETANGS NOIRS",,50.857069,4.332197,,,0,
4112,,"LOWET",,50.874039,4.310287,,,0,
4115,,"GANSHOREN-SPORT",,50.877186,4.301063,,,0,
4116,,"PARC ELISABETH",,50.865071,4.328340,,,0,
4118F,,"BOCKSTAEL",,50.877554,4.347198,,,0,
4119F,,"BOCKSTAEL",,50.877545,4.347795,,,0,
4125,,"BOCKSTAEL",,50.875855,4.348193,,,0,
4127,,"BOCKSTAEL",,50.875720,4.348350,,,0,
4131B,,"GARE DE BOCKSTAEL",,50.879855,4.347609,,,0,
4132B,,"GARE DE BOCKSTAEL",,50.879738,4.347908,,,0,
4152,,"PARC ELISABETH",,50.865502,4.327476,,,0,
4153,,"COLLEGE S.-COEUR",,50.868060,4.315424,,,0,
4156,,"BEECKMANS",,50.869363,4.310688,,,0,
4157,,"SORENSEN",,50.871043,4.312039,,,0,
4158,,"NEREUS",,50.872601,4.313090,,,0,
4159,,"NEUBERGER",,50.876054,4.307227,,,0,
4160,,"HET VEROOST",,50.878261,4.304038,,,0,
4162,,"BASILIX",,50.872806,4.297930,,,0,
4163,,"LOWET",,50.874249,4.310166,,,0,
4165,,"BOIS DES ILES",,50.873883,4.294419,,,0,
4168,,"GANSHOREN-SPORT",,50.877078,4.300879,,,0,
4169,,"CHOPIN",,50.874641,4.299862,,,0,
4205B,,"PALFIJN",,50.893983,4.325214,,,0,
4206B,,"TIRCHER",,50.892377,4.324067,,,0,
4207,,"PATTIJN",,50.891014,4.325347,,,0,
4213,,"RIBAUCOURT",,50.859879,4.341212,,,0,
4214,,"MERCHTEM",,50.858413,4.336782,,,0,
4223F,,"DE HEYN",,50.893405,4.319125,,,0,
4228,,"AMETHYSTE",,50.895888,4.327036,,,0,
4229,,"STADE",,50.893802,4.332107,,,0,
4230,,"HOUBA-BRUGMANN",,50.889903,4.336960,,,0,
4232,,"SOBIESKI",,50.884412,4.343898,,,0,
4251,,"CROCQ",,50.885316,4.329630,,,0,
4253,,"RIBAUCOURT",,50.859888,4.341493,,,0,
4258,,"POUCHKINE",,50.871076,4.344064,,,0,
4259,,"PATTIJN",,50.891131,4.325105,,,0,
4261,,"PALFIJN",,50.893859,4.326119,,,0,
4262F,,"GARE DE BERCHEM",,50.872520,4.289840,,,0,
4263F,,"GARE DE BERCHEM",,50.872676,4.290261,,,0,
4264B,,"HEYSEL",,50.896824,4.336515,,,0,
4265,,"HEYSEL",,50.896429,4.335858,,,0,
4266,,"NEKKERSDAL",,50.874191,4.346915,,,0,
4267,,"NEKKERSDAL",,50.873832,4.346305,,,0,
4268,,"AMETHYSTE",,50.896020,4.327080,,,0,
4274,,"SOBIESKI",,50.884735,4.343898,,,0,
4276,,"HOUBA-BRUGMANN",,50.890541,4.336561,,,0,
4277,,"STADE",,50.894019,4.332238,,,0,
4287,,"INTERNAT. SCHOOL",,50.792197,4.419611,,,0,
4288,,"INTERNAT. SCHOOL",,50.792179,4.419370,,,0,
4289,,"ETANGS BOITSFORT",,50.794104,4.418493,,,0,
4290,,"KATTENBERG",,50.790516,4.420068,,,0,
4292,,"ETANGS BOITSFORT",,50.793934,4.417910,,,0,
4293,,"BRILLANT",,50.811909,4.401854,,,0,
4294,,"TERCOIGNE",,50.812313,4.404749,,,0,
4295,,"GARDON",,50.812744,4.410509,,,0,
4296,,"BERENSHEIDE",,50.813685,4.414881,,,0,
4297,,"BEAULIEU",,50.815413,4.408214,,,0,
4298,,"MICHIELS",,50.814776,4.403204,,,0,
4299,,"BRILLANT",,50.811774,4.401045,,,0,
4303,,"GERMOIR",,50.829929,4.378660,,,0,
4304,,"RODIN",,50.827285,4.381952,,,0,
4305,,"DELPORTE",,50.824183,4.385896,,,0,
4306,,"ETTERBEEK GARE",,50.821675,4.388989,,,0,
4307,,"THYS",,50.817848,4.392422,,,0,
4308,,"RELAIS",,50.811687,4.393043,,,0,
4309,,"ARCADES",,50.810242,4.397021,,,0,
4310,,"KEYM",,50.809616,4.403442,,,0,
4311,,"VANDER ELST",,50.805205,4.406721,,,0,
4313,,"LES 3 TILLEULS",,50.802583,4.412501,,,0,
4314,,"CERISAIE",,50.802617,4.418772,,,0,
4315,,"FAUCONNERIE",,50.801357,4.422388,,,0,
4318,,"WIENER",,50.798643,4.419774,,,0,
4319,,"EQUIPAGES",,50.787402,4.422597,,,0,
4340,,"WIENER",,50.798627,4.420494,,,0,
4341,,"DIABOLO",,50.796612,4.417673,,,0,
4342,,"DIABOLO",,50.796333,4.417673,,,0,
4344,,"CERISAIE",,50.802779,4.418474,,,0,
4345,,"FAUCONNERIE",,50.801519,4.422108,,,0,
4347,,"MIRAVAL",,50.799796,4.414442,,,0,
4348,,"MIRAVAL",,50.800227,4.414017,,,0,
4349,,"WIENER",,50.798535,4.419065,,,0,
4351,,"WIENER",,50.798677,4.419150,,,0,
4355,,"LES 3 TILLEULS",,50.802745,4.412870,,,0,
4357,,"VANDER ELST",,50.805415,4.406750,,,0,
4358,,"KEYM",,50.810030,4.403172,,,0,
4359,,"ARCADES",,50.810481,4.396748,,,0,
4360,,"RELAIS",,50.812046,4.392405,,,0,
4362,,"THYS",,50.817530,4.392642,,,0,
4363,,"ETTERBEEK GARE",,50.821900,4.388876,,,0,
4364,,"DELPORTE",,50.824345,4.385783,,,0,
4365,,"RODIN",,50.827537,4.381838,,,0,
4366,,"GERMOIR",,50.829272,4.379696,,,0,
4367B,,"LUXEMBOURG",,50.838176,4.372821,,,0,
4369,,"ARSENAL",,50.825718,4.397862,,,0,
4401,,"LOUTRIER",,50.810748,4.407132,,,0,
4402,,"HANNETONS",,50.810919,4.411512,,,0,
4403,,"ARCHIDUCS",,50.809485,4.416856,,,0,
4405,,"PECHERIES",,50.813198,4.417236,,,0,
4407,,"VIGNETTE",,50.814222,4.419678,,,0,
4408,,"TRITOMAS",,50.810940,4.418766,,,0,
4449,,"TRITOMAS",,50.810857,4.418484,,,0,
4452,,"PECHERIES",,50.812820,4.417406,,,0,
4454,,"ARCHIDUCS",,50.810259,4.416127,,,0,
4455,,"HANNETONS",,50.811020,4.411197,,,0,
4456,,"LOUTRIER",,50.810757,4.407004,,,0,
4500,,"RTL HOUSE",,50.856891,4.408249,,,0,
4501F,,"STALLE (P)",,50.795271,4.318735,,,0,
4502F,,"STALLE (P)",,50.794434,4.319624,,,0,
4505,,"MOMMAERTS",,50.856889,4.413007,,,0,
4555,,"PAUL LEDUC",,50.860735,4.403898,,,0,
4556B,,"GENEVE",,50.864192,4.403284,,,0,
4558,,"RTL HOUSE",,50.857268,4.408122,,,0,
4594,,"DUCHESSE BRABANT",,50.849635,4.328818,,,0,
4595,,"DUCHESSE BRABANT",,50.849457,4.330322,,,0,
4598,,"BROEK",,50.862838,4.287581,,,0,
4599,,"MARICOLLES",,50.860098,4.288077,,,0,
4600,,"CIMETIERES",,50.856090,4.289959,,,0,
4601,,"ELBERS",,50.855239,4.295158,,,0,
4602,,"HOOGBOSCH",,50.855430,4.298708,,,0,
4653,,"HOOGBOSCH",,50.855484,4.298467,,,0,
4655,,"ELBERS",,50.855293,4.294973,,,0,
4656,,"CIMETIERES",,50.856278,4.289902,,,0,
4657,,"MARICOLLES",,50.860250,4.288191,,,0,
4658,,"THYM",,50.856714,4.302963,,,0,
4659,,"CANDRIES",,50.855632,4.306249,,,0,
4661B,,"BROEK",,50.863333,4.286893,,,0,
4705,,"WASHINGTON",,50.821867,4.363587,,,0,
4804B,,"MERCURE",,50.796825,4.356449,,,0,
4853,,"MERCURE",,50.796415,4.356709,,,0,
4854C,,"OBSERVATOIRE",,50.799876,4.358382,,,0,
4857B,,"OBSERVATOIRE",,50.799553,4.358567,,,0,
4952,,"PORTE DE NAMUR",,50.838883,4.363086,,,0,
4955F,,"STUYVENBERGH",,50.886272,4.342107,,,0,
4956,,"STUYVENBERGH",,50.886506,4.341609,,,0,
4957,,"STUYVENBERGH",,50.886299,4.341538,,,0,
4958F,,"STUYVENBERGH",,50.886397,4.342466,,,0,
5001F,,"DE WAND",,50.895267,4.355039,,,0,
5003,,"ERNEST SALU",,50.884228,4.337802,,,0,
5006,,"DEMINEURS",,50.877640,4.332876,,,0,
5007F,,"WOESTE",,50.874163,4.333773,,,0,
5008F,,"ODON WARLAND",,50.870424,4.334721,,,0,
5009B,,"BELGICA",,50.867474,4.336065,,,0,
5009G,,"BELGICA",,50.867465,4.336080,,,0,
5011F,,"VANDERSTICHELEN",,50.865946,4.338822,,,0,
5013B,,"RIBAUCOURT",,50.860230,4.340888,,,0,
5013F,,"RIBAUCOURT",,50.860212,4.340871,,,0,
5014,,"SAINCTELETTE",,50.858981,4.344891,,,0,
5015,,"JUBILE",,50.861254,4.338300,,,0,
5016F,,"STEPHANIE",,50.833327,4.357041,,,0,
5017,,"STEPHANIE",,50.832607,4.356800,,,0,
5018,,"FAIDER",,50.829515,4.355850,,,0,
5018F,,"FAIDER",,50.829515,4.355850,,,0,
5020,,"MA CAMPAGNE",,50.822287,4.353339,,,0,
5021,,"DARWIN",,50.818151,4.350715,,,0,
5022,,"MOLIERE",,50.815718,4.349216,,,0,
5024,,"MESSIDOR",,50.809808,4.345455,,,0,
5025,,"BOETENDAEL",,50.806640,4.343477,,,0,
5026,,"HEROS",,50.803308,4.341358,,,0,
5027,,"DIEWEG",,50.795614,4.348908,,,0,
5028,,"THEVENET",,50.794729,4.352442,,,0,
5029,,"LANCASTER",,50.794671,4.357873,,,0,
5030F,,"GARE DE SAINT-JOB",,50.794238,4.362541,,,0,
5031F,,"PLACE SAINT-JOB",,50.793665,4.366567,,,0,
5032G,,"ALPHONSE XIII",,50.791094,4.368695,,,0,
5039,,"DA VINCI",,50.876747,4.412529,,,0,
5040,,"DA VINCI",,50.876145,4.410823,,,0,
5041F,,"DA VINCI",,50.876787,4.411827,,,0,
5042,,"DA VINCI",,50.876177,4.410772,,,0,
5044,,"DA VINCI",,50.876795,4.414716,,,0,
5045,,"DA VINCI",,50.874929,4.412712,,,0,
5046,,"DA VINCI",,50.874586,4.413341,,,0,
5048,,"DA VINCI",,50.876145,4.410440,,,0,
5053B,,"ALPHONSE XIII",,50.791229,4.368303,,,0,
5053G,,"ALPHONSE XIII",,50.791238,4.368197,,,0,
5054F,,"PLACE SAINT-JOB",,50.794105,4.366354,,,0,
5055F,,"GARE DE SAINT-JOB",,50.794320,4.362040,,,0,
5056,,"LANCASTER",,50.794599,4.356511,,,0,
5057,,"THEVENET",,50.794746,4.352567,,,0,
5058,,"HEROS",,50.803542,4.341571,,,0,
5058F,,"HEROS",,50.803658,4.341653,,,0,
5059,,"BOETENDAEL",,50.807578,4.344131,,,0,
5060,,"MESSIDOR",,50.810843,4.346215,,,0,
5062,,"MOLIERE",,50.816533,4.349794,,,0,
5063,,"DARWIN",,50.818961,4.351340,,,0,
5064,,"MA CAMPAGNE",,50.822503,4.353595,,,0,
5066,,"FAIDER",,50.830054,4.356105,,,0,
5066F,,"FAIDER",,50.830045,4.356076,,,0,
5067,,"STEPHANIE",,50.832778,4.356970,,,0,
5068F,,"STEPHANIE",,50.833556,4.357177,,,0,
5071,,"SAINCTELETTE",,50.859349,4.344522,,,0,
5072,,"RIBAUCOURT",,50.860418,4.340473,,,0,
5074F,,"VANDERSTICHELEN",,50.866207,4.338439,,,0,
5076B,,"BELGICA",,50.867752,4.335611,,,0,
5076G,,"BELGICA",,50.867743,4.335639,,,0,
5077,,"ODON WARLAND",,50.870880,4.334657,,,0,
5078F,,"WOESTE",,50.875200,4.333587,,,0,
5079,,"DEMINEURS",,50.877973,4.332833,,,0,
5082,,"ERNEST SALU",,50.884721,4.338988,,,0,
5086F,,"DE WAND",,50.895282,4.355491,,,0,
5088F,,"CIM. DE JETTE",,50.879789,4.334480,,,0,
5089,,"JUBILE",,50.861667,4.338228,,,0,
5090F,,"CIM. DE JETTE",,50.880077,4.334920,,,0,
5092F,,"GUILL. DE GREEF",,50.882621,4.335572,,,0,
5093F,,"GUILL. DE GREEF",,50.882239,4.335430,,,0,
5100B,,"WIELS",,50.824088,4.326841,,,0,
5101B,,"WIELS",,50.823845,4.325919,,,0,
5102,,"AZUR",,50.866669,4.287130,,,0,
5102F,,"AZUR",,50.866650,4.287285,,,0,
5103,,"HUNDERENVELD",,50.866952,4.281744,,,0,
5104F,,"GROOT-BIJGAARDEN",,50.867160,4.275414,,,0,
5105,,"VEREMAN",,50.865359,4.292486,,,0,
5105F,,"VEREMAN",,50.865323,4.292571,,,0,
5107B,,"BERTHELOT",,50.824125,4.330971,,,0,
5108,,"BOSSAERT-BASILIQ.",,50.865427,4.318808,,,0,
5109,,"BESME",,50.863488,4.325287,,,0,
5111B,,"BERTHELOT",,50.824332,4.330730,,,0,
5115,,"ROCHEFORT",,50.824360,4.335499,,,0,
5159,,"WIELS",,50.824878,4.326330,,,0,
5159F,,"WIELS",,50.824878,4.326316,,,0,
5165,,"BESME",,50.863892,4.324406,,,0,
5166,,"BOSSAERT-BASILIQ.",,50.865561,4.318406,,,0,
5168,,"VEREMAN",,50.865288,4.292926,,,0,
5168F,,"VEREMAN",,50.865279,4.292912,,,0,
5169F,,"GROOT-BIJGAARDEN",,50.867151,4.274790,,,0,
5170,,"HUNDERENVELD",,50.867042,4.281318,,,0,
5172F,,"COLLEGE S.-COEUR",,50.867115,4.313479,,,0,
5174,,"AZUR",,50.866725,4.286958,,,0,
5174F,,"AZUR",,50.866731,4.286858,,,0,
5175,,"WIELS",,50.824182,4.327395,,,0,
5200F,,"ROFFIAEN",,50.819680,4.381652,,,0,
5205,,"ETTERBEEK GARE",,50.822175,4.388833,,,0,
5208,,"CAMBRE-ETOILE",,50.816372,4.376301,,,0,
5210,,"BASCULE",,50.814979,4.367815,,,0,
5211,,"LONGCHAMP",,50.811923,4.367234,,,0,
5212,,"GOSSART",,50.811392,4.361586,,,0,
5213,,"CAVELL",,50.811554,4.356734,,,0,
5219F,,"CHURCHILL",,50.812147,4.352676,,,0,
5220F,,"CHURCHILL",,50.811805,4.354662,,,0,
5221F,,"CHURCHILL",,50.812039,4.353087,,,0,
5222F,,"CHURCHILL",,50.811680,4.355358,,,0,
5223F,,"PARC DES SOURCES",,50.837131,4.435076,,,0,
5224F,,"PARC DES SOURCES",,50.836827,4.434906,,,0,
5225F,,"VOOT",,50.840564,4.436723,,,0,
5226F,,"VOOT",,50.839505,4.435861,,,0,
5227F,,"WOLUWE SHOPPING",,50.844597,4.438395,,,0,
5228F,,"WOLUWE SHOPPING",,50.844246,4.438232,,,0,
5229F,,"ROODEBEEK",,50.847523,4.436331,,,0,
5230F,,"ROODEBEEK",,50.847593,4.436900,,,0,
5253,,"CAVELL",,50.811401,4.358465,,,0,
5254,,"GOSSART",,50.811455,4.363275,,,0,
5255,,"LONGCHAMP",,50.811977,4.367858,,,0,
5255F,,"LONGCHAMP",,50.811977,4.367858,,,0,
5256,,"BASCULE",,50.814988,4.368213,,,0,
5256F,,"BASCULE",,50.815060,4.368552,,,0,
5258,,"CAMBRE-ETOILE",,50.816489,4.377479,,,0,
5261,,"ETTERBEEK GARE",,50.822385,4.389373,,,0,
5264F,,"ROFFIAEN",,50.819997,4.383243,,,0,
5265F,,"VUB",,50.824744,4.394023,,,0,
5266F,,"VUB",,50.824529,4.393507,,,0,
5267,,"ARSENAL",,50.826617,4.397695,,,0,
5269F,,"AUDERGHEM-SHOP.",,50.816286,4.426179,,,0,
5270F,,"ROND-PT SOUVERAIN",,50.819305,4.429092,,,0,
5271F,,"EMPAIN",,50.824976,4.431867,,,0,
5272F,,"MUSEE DU TRAM",,50.832330,4.432595,,,0,
5273,,"MUSEE DU TRAM",,50.832238,4.432460,,,0,
5273F,,"MUSEE DU TRAM",,50.832276,4.432445,,,0,
5274F,,"PENTATHLON",,50.860596,4.401520,,,0,
5275F,,"EVERE SHOPPING",,50.867644,4.402860,,,0,
5277F,,"LEKAERTS",,50.871868,4.406657,,,0,
5278F,,"EVERE SHOPPING",,50.866727,4.402505,,,0,
5279F,,"PENTATHLON",,50.860474,4.401537,,,0,
5281G,,"MUSEE DU TRAM",,50.831420,4.432911,,,0,
5282F,,"EMPAIN",,50.823990,4.431503,,,0,
5283F,,"ROND-PT SOUVERAIN",,50.819218,4.428635,,,0,
5284F,,"AUDERGHEM-SHOP.",,50.815982,4.425908,,,0,
5287,,"MUSEE DU TRAM",,50.831884,4.432601,,,0,
5296B,,"BIZET",,50.825126,4.297987,,,0,
5297B,,"BIZET",,50.825454,4.298142,,,0,
5298,,"BORDET STATION",,50.878860,4.409987,,,0,
5299,,"BORDET STATION",,50.878788,4.410101,,,0,
5303,,"DEMOLDER",,50.871801,4.380544,,,0,
5305G,,"LOUIS BERTRAND",,50.865454,4.385091,,,0,
5306G,,"HELIOTROPES",,50.862532,4.386934,,,0,
5307H,,"CHAZAL",,50.860428,4.393069,,,0,
5308,,"LEOPOLD III",,50.856759,4.397583,,,0,
5308F,,"LEOPOLD III",,50.856750,4.397569,,,0,
5311,,"ARSENAL",,50.826403,4.397188,,,0,
5312,,"PETILLON",,50.829295,4.402321,,,0,
5317G,,"HOP. PAUL BRIEN",,50.868018,4.385362,,,0,
5350G,,"HOP. PAUL BRIEN",,50.868924,4.384672,,,0,
5352,,"PETILLON",,50.829546,4.402804,,,0,
5354H,,"LEOPOLD III",,50.857047,4.397456,,,0,
5355F,,"CHAZAL",,50.861129,4.391336,,,0,
5356,,"HELIOTROPES",,50.863513,4.385826,,,0,
5357,,"LOUIS BERTRAND",,50.866751,4.385363,,,0,
5359,,"DEMOLDER",,50.872251,4.379834,,,0,
5361,,"BORDET STATION",,50.878442,4.409805,,,0,
5362,,"BORDET STATION",,50.878099,4.409958,,,0,
5398F,,"POLYCL. BRUGMANN",,50.889208,4.334082,,,0,
5399F,,"POLYCL. BRUGMANN",,50.889039,4.334672,,,0,
5400,,"STADE",,50.893407,4.332111,,,0,
5402,,"STIENON",,50.890647,4.330038,,,0,
5403,,"HOPITAL BRUGMANN",,50.886036,4.333523,,,0,
5404,,"BAILLI",,50.826837,4.364068,,,0,
5405,,"STEPHANIE",,50.832985,4.357751,,,0,
5406,,"DEFACQZ",,50.828607,4.362280,,,0,
5407,,"ULB",,50.814061,4.384119,,,0,
5407F,,"ULB",,50.814061,4.384119,,,0,
5408,,"VLEURGAT",,50.822980,4.368042,,,0,
5409,,"ABBAYE",,50.818926,4.370739,,,0,
5413F,,"SOLBOSCH",,50.810503,4.385857,,,0,
5414F,,"MARIE-JOSE",,50.806384,4.387635,,,0,
5415F,,"BRESIL",,50.802634,4.390584,,,0,
5416,,"BOONDAEL GARE",,50.801169,4.393449,,,0,
5416F,,"BOONDAEL GARE",,50.801169,4.393449,,,0,
5417F,,"HIPPOD. BOITSFORT",,50.796702,4.398927,,,0,
5420F,,"BOITSFORT GARE",,50.795447,4.407814,,,0,
5421,,"DELLEUR",,50.795733,4.413573,,,0,
5422,,"WIENER",,50.798194,4.418753,,,0,
5423,,"FAUCONNERIE",,50.801015,4.422699,,,0,
5424,,"HIPPOD. BOITSFORT",,50.797123,4.394944,,,0,
5426,,"HERRMANN-DEBROUX",,50.811881,4.427820,,,0,
5427,,"HERRMANN-DEBROUX",,50.811647,4.427621,,,0,
5430,,"FAUCONNERIE",,50.800907,4.422359,,,0,
5449F,,"HIPPOD. BOITSFORT",,50.796800,4.398446,,,0,
5451,,"BOONDAEL GARE",,50.801438,4.393009,,,0,
5451F,,"BOONDAEL GARE",,50.801438,4.393009,,,0,
5452,,"WIENER",,50.798140,4.418256,,,0,
5453,,"DELLEUR",,50.795651,4.412956,,,0,
5454F,,"BOITSFORT GARE",,50.795593,4.406981,,,0,
5458,,"GENDARMES",,50.799463,4.379178,,,0,
5459F,,"BRESIL",,50.802854,4.390373,,,0,
5460F,,"MARIE-JOSE",,50.806653,4.387677,,,0,
5461F,,"SOLBOSCH",,50.810834,4.385835,,,0,
5462F,,"ULB",,50.813657,4.384332,,,0,
5466,,"ABBAYE",,50.819834,4.370512,,,0,
5467,,"VLEURGAT",,50.824108,4.366996,,,0,
5468,,"JEANNE",,50.815500,4.383566,,,0,
5469,,"DEFACQZ",,50.829416,4.361541,,,0,
5470,,"STEPHANIE",,50.833183,4.357651,,,0,
5471,,"HOPITAL BRUGMANN",,50.886216,4.333964,,,0,
5472,,"STIENON",,50.890881,4.330308,,,0,
5474,,"STADE",,50.893839,4.331926,,,0,
5475,,"BAILLI",,50.827628,4.363358,,,0,
5480,,"LA CHASSE",,50.830979,4.389845,,,0,
5501,,"GJ MARTIN",,50.836753,4.411540,,,0,
5502,,"LEOPOLD II",,50.836257,4.415230,,,0,
5503,,"JULES CESAR",,50.834663,4.421915,,,0,
5504,,"CHIEN VERT",,50.835002,4.428247,,,0,
5507,,"DE VILLALOBAR",,50.827840,4.438996,,,0,
5508,,"MADOUX",,50.827135,4.444942,,,0,
5509,,"RUE AU BOIS",,50.831131,4.451677,,,0,
5510,,"AVIATION",,50.834696,4.456609,,,0,
5512,,"ESCRIME",,50.838719,4.463992,,,0,
5515,,"DE BURBURE",,50.845317,4.473540,,,0,
5516,,"BEL-AIR",,50.845853,4.479758,,,0,
5517,,"LOUIS MARCELIS",,50.846268,4.484802,,,0,
5518,,"RUISSEAU",,50.846818,4.491262,,,0,
5519,,"TER MEEREN",,50.844993,4.499935,,,0,
5520F,,"BAN-EIK",,50.842114,4.502611,,,0,
5521,,"TER MEEREN",,50.845288,4.499688,,,0,
5522,,"RUISSEAU",,50.846828,4.490782,,,0,
5523,,"LOUIS MARCELIS",,50.846270,4.484267,,,0,
5524,,"BEL-AIR",,50.845869,4.479264,,,0,
5525,,"DE BURBURE",,50.845335,4.473043,,,0,
5528F,,"BAN-EIK",,50.842397,4.502451,,,0,
5529,,"AMITIE",,50.844605,4.465019,,,0,
5530,,"AMITIE",,50.844608,4.464510,,,0,
5531,,"GJ MARTIN",,50.836834,4.411412,,,0,
5532,,"EGLANTIERS",,50.844774,4.467008,,,0,
5533,,"EGLANTIERS",,50.844783,4.466496,,,0,
5551,,"ESCRIME",,50.838098,4.463160,,,0,
5553,,"AVIATION",,50.834894,4.456936,,,0,
5554,,"RUE AU BOIS",,50.830978,4.451379,,,0,
5555,,"MADOUX",,50.827387,4.444659,,,0,
5556,,"DE VILLALOBAR",,50.827858,4.438684,,,0,
5559,,"CHIEN VERT",,50.835083,4.427821,,,0,
5560,,"JULES CESAR",,50.834960,4.420425,,,0,
5561F,,"LEOPOLD II",,50.836232,4.415438,,,0,
5562,,"GJ MARTIN",,50.837595,4.412111,,,0,
5601,,"TROIS COULEURS",,50.821865,4.447474,,,0,
5602,,"AUDERGHEM-FORET",,50.818472,4.450646,,,0,
5603,,"DREVE DES BRULES",,50.818899,4.457204,,,0,
5604,,"TIR AUX PIGEONS",,50.819810,4.467423,,,0,
5605,,"QUATRE BRAS",,50.820296,4.476975,,,0,
5611,,"MUSEE D'IXELLES",,50.829965,4.369547,,,0,
5612,,"MUSEE D'IXELLES",,50.829785,4.369746,,,0,
5655,,"QUATRE BRAS",,50.820442,4.476770,,,0,
5656,,"TIR AUX PIGEONS",,50.819863,4.467693,,,0,
5657,,"DREVE DES BRULES",,50.818973,4.457374,,,0,
5658,,"AUDERGHEM-FORET",,50.818609,4.450335,,,0,
5659,,"TROIS COULEURS",,50.822144,4.447460,,,0,
5700G,,"DE WAND",,50.895098,4.357463,,,0,
5701,,"ESPLANADE",,50.900108,4.348126,,,0,
5704F,,"ARAUCARIA",,50.892871,4.363956,,,0,
5705,,"BUISSONNETS",,50.891291,4.368867,,,0,
5710F,,"VERBOEKHOVEN",,50.871388,4.375288,,,0,
5711F,,"PAVILLON",,50.869258,4.370997,,,0,
5714,,"THOMAS",,50.865348,4.362872,,,0,
5715F,,"HEEMBEEK",,50.886989,4.376573,,,0,
5716F,,"HEEMBEEK",,50.887374,4.376410,,,0,
5717F,,"HEEMBEEK",,50.887012,4.376683,,,0,
5718,,"ORBAN",,50.826901,4.327151,,,0,
5735,,"GILLON",,50.855891,4.366991,,,0,
5740,,"VERBOEKHOVEN",,50.871379,4.375217,,,0,
5741,,"PAVILLON",,50.869914,4.371608,,,0,
5742B,,"STEPHENSON",,50.869591,4.367190,,,0,
5757,,"ORBAN",,50.827270,4.327492,,,0,
5757F,,"ORBAN",,50.827279,4.327477,,,0,
5758F,,"DOCKS BRUXSEL",,50.879173,4.374834,,,0,
5759F,,"DOCKS BRUXSEL",,50.879569,4.374806,,,0,
5760,,"DOCKS BRUXSEL",,50.878679,4.377120,,,0,
5761,,"DOCKS BRUXSEL",,50.878903,4.376690,,,0,
5762,,"THOMAS",,50.865689,4.364534,,,0,
5765F,,"PAVILLON",,50.869555,4.371338,,,0,
5766,,"VERBOEKHOVEN",,50.871128,4.376282,,,0,
5772,,"BUISSONNETS",,50.891533,4.368331,,,0,
5773,,"ARAUCARIA",,50.893700,4.362556,,,0,
5776,,"ESPLANADE",,50.900459,4.348084,,,0,
5779,,"DE WAND",,50.895188,4.355108,,,0,
5781F,,"ANCRE",,50.890145,4.377451,,,0,
5782F,,"ANCRE",,50.890338,4.377721,,,0,
5783F,,"ZAVELPUT",,50.893951,4.382853,,,0,
5784F,,"ZAVELPUT",,50.894329,4.382867,,,0,
5785F,,"PETER BENOIT",,50.895101,4.387260,,,0,
5786F,,"PETER BENOIT",,50.895523,4.389136,,,0,
5787F,,"CHEMIN VERT",,50.896448,4.393529,,,0,
5788F,,"CHEMIN VERT",,50.896664,4.394069,,,0,
5789F,,"NELSON MANDELA",,50.898857,4.397553,,,0,
5790F,,"NELSON MANDELA",,50.899072,4.398079,,,0,
5791F,,"M. YOURCENAR",,50.902695,4.397882,,,0,
5792F,,"M. YOURCENAR",,50.903054,4.398209,,,0,
5793F,,"SIMONE VEIL",,50.904986,4.401154,,,0,
5794F,,"SIMONE VEIL",,50.905166,4.401729,,,0,
5795G,,"MERCATOR",,50.908380,4.395715,,,0,
5796G,,"MERCATOR",,50.908451,4.395445,,,0,
5797F,,"HOPITAL MILITAIRE",,50.908279,4.389796,,,0,
5798F,,"HOPITAL MILITAIRE",,50.907965,4.389397,,,0,
5802,,"TILLEUL",,50.875920,4.392843,,,0,
5803G,,"HELMET",,50.873428,4.386924,,,0,
5804G,,"FOYER SCHAERBEEK.",,50.871651,4.384372,,,0,
5805,,"WAELHEM",,50.870156,4.382107,,,0,
5806,,"DE WAND",,50.895399,4.356785,,,0,
5810,,"TIMMERMANS",,50.818572,4.340952,,,0,
5811,,"MOLIERE-LONGCHAMP",,50.816262,4.339974,,,0,
5813,,"ROOSENDAEL",,50.810319,4.337566,,,0,
5817F,,"UCCLE CALEVOET",,50.791821,4.332703,,,0,
5823,,"CREMATORIUM",,50.784415,4.328056,,,0,
5824,,"CREMATORIUM",,50.784830,4.328375,,,0,
5825,,"ENGELAND",,50.788856,4.333542,,,0,
5826,,"BOURDON",,50.786881,4.329615,,,0,
5827F,,"GLOBE",,50.800610,4.336480,,,0,
5828F,,"XAVIER DE BUE",,50.804197,4.336690,,,0,
5829F,,"XAVIER DE BUE",,50.803019,4.336592,,,0,
5830F,,"BENS",,50.807235,4.336844,,,0,
5831F,,"BENS",,50.807469,4.336801,,,0,
5832F,,"ROOSENDAEL",,50.810714,4.337778,,,0,
5833F,,"ROOSENDAEL",,50.809636,4.337297,,,0,
5834F,,"COGHEN",,50.813241,4.338827,,,0,
5835F,,"COGHEN",,50.812899,4.338628,,,0,
5836F,,"ALTITUDE CENT",,50.816971,4.336994,,,0,
5837F,,"ALTITUDE CENT",,50.816566,4.336214,,,0,
5838F,,"JUPITER",,50.819596,4.337148,,,0,
5839F,,"JUPITER",,50.819470,4.336808,,,0,
5853B,,"GLOBE",,50.799455,4.336493,,,0,
5853G,,"GLOBE",,50.799531,4.336466,,,0,
5856,,"ROOSENDAEL",,50.810063,4.337543,,,0,
5858,,"MOLIERE-LONGCHAMP",,50.816405,4.340144,,,0,
5859,,"TIMMERMANS",,50.818968,4.341236,,,0,
5860,,"BOURDON",,50.787161,4.329852,,,0,
5865,,"WAELHEM",,50.870061,4.381499,,,0,
5866,,"FOYER SCHAERBEEK.",,50.871929,4.384974,,,0,
5867F,,"HELMET",,50.874138,4.387720,,,0,
5868,,"TILLEUL",,50.875809,4.392352,,,0,
5874F,,"LEKAERTS",,50.871499,4.406216,,,0,
5905,,"AQUIRIS",,50.903895,4.412156,,,0,
5906,,"RIVE DROITE",,50.901712,4.408686,,,0,
5908,,"CERES",,50.895430,4.402952,,,0,
5910,,"CHEMIN DE FER",,50.889409,4.397078,,,0,
5911B,,"PONT ALBERT",,50.881474,4.382494,,,0,
5913,,"MONNOYER",,50.885481,4.390023,,,0,
5915,,"FOREST CENTRE",,50.812101,4.318878,,,0,
5916,,"EGIDE VAN OPHEM",,50.796220,4.324184,,,0,
5916F,,"EGIDE VAN OPHEM",,50.796219,4.324185,,,0,
5917F,,"WAGON",,50.796829,4.329470,,,0,
5920C,,"CARREFOUR STALLE",,50.795966,4.320384,,,0,
5920H,,"CARREFOUR STALLE",,50.795961,4.320170,,,0,
5921B,,"CARREFOUR STALLE",,50.795942,4.320812,,,0,
5921G,,"CARREFOUR STALLE",,50.795930,4.320966,,,0,
5922,,"EGGERGAT",,50.794272,4.312968,,,0,
5923,,"EGGERGAT",,50.795119,4.315950,,,0,
5952F,,"WAGON",,50.796742,4.329050,,,0,
5953,,"EGIDE VAN OPHEM",,50.796311,4.323759,,,0,
5953F,,"EGIDE VAN OPHEM",,50.796318,4.323759,,,0,
5958C,,"PONT ALBERT",,50.882253,4.384620,,,0,
5959,,"CHEMIN DE FER",,50.888744,4.396438,,,0,
5961,,"CERES",,50.895385,4.403336,,,0,
5965,,"MONNOYER",,50.885437,4.390410,,,0,
5967,,"RIVE DROITE",,50.901505,4.408885,,,0,
5968,,"AQUIRIS",,50.903499,4.412256,,,0,
6004,,"MENNEKENS",,50.853893,4.316207,,,0,
6005,,"JOSEPH BAECK",,50.851744,4.316905,,,0,
6008,,"ACACIAS",,50.834302,4.393363,,,0,
6009,,"ACACIAS",,50.834115,4.393126,,,0,
6017,,"HOUWAERT",,50.852987,4.373581,,,0,
6018,,"STEURS",,50.852825,4.378168,,,0,
6019,,"FUSS",,50.853948,4.380753,,,0,
6020,,"CLAYS",,50.853914,4.383279,,,0,
6021,,"CHASSEURS ARDEN.",,50.849259,4.389462,,,0,
6022B,,"WAPPERS",,50.845027,4.395125,,,0,
6023,,"JAMBLINNE DE MEUX",,50.846809,4.393402,,,0,
6024,,"CHEVALERIE",,50.842637,4.395658,,,0,
6053,,"CHEVALERIE",,50.842763,4.395899,,,0,
6054B,,"WAPPERS",,50.844840,4.395358,,,0,
6055,,"JAMBLINNE DE MEUX",,50.847060,4.393260,,,0,
6056,,"CHASSEURS ARDEN.",,50.849111,4.389839,,,0,
6058,,"CLAYS",,50.853903,4.383962,,,0,
6059,,"FUSS",,50.853517,4.380696,,,0,
6060,,"STEURS",,50.852933,4.377799,,,0,
6061,,"BOSSUET",,50.853870,4.373165,,,0,
6062,,"RUE TRAVERSIERE",,50.854551,4.368894,,,0,
6068,,"BARA",,50.838807,4.337050,,,0,
6070,,"JOSEPH BAECK",,50.852014,4.316947,,,0,
6071,,"MENNEKENS",,50.855826,4.316659,,,0,
6081B,,"FERNAND LEGER",,50.875408,4.410155,,,0,
6082,,"LUTHER",,50.849327,4.385650,,,0,
6099,,"AVENUE DU ROI",,50.831452,4.334500,,,0,
6100,,"MOORSLEDE",,50.877572,4.351034,,,0,
6106,,"BETHLEEM",,50.830132,4.337425,,,0,
6112,,"FLAGEY",,50.828273,4.372017,,,0,
6113F,,"GERMOIR",,50.829955,4.379824,,,0,
6114F,,"EGLISE ST-ANTOINE",,50.829900,4.386634,,,0,
6117,,"PLACE ST-PIERRE",,50.837270,4.396066,,,0,
6121F,,"GUILLAUME TELL",,50.828128,4.341869,,,0,
6122,,"PRINC. CLEMENTINE",,50.877132,4.353791,,,0,
6123,,"MASUI",,50.868871,4.362104,,,0,
6153,,"PLACE ST-PIERRE",,50.837081,4.395711,,,0,
6155F,,"LA CHASSE",,50.830431,4.389192,,,0,
6156F,,"EGLISE ST-ANTOINE",,50.829852,4.386154,,,0,
6157F,,"GERMOIR",,50.829919,4.379554,,,0,
6158,,"LEVURE",,50.828018,4.375186,,,0,
6158H,,"LEVURE",,50.828028,4.375196,,,0,
6165,,"GUILLAUME TELL",,50.828698,4.340716,,,0,
6166,,"BETHLEEM",,50.829907,4.338050,,,0,
6171,,"MOORSLEDE",,50.877518,4.350310,,,0,
6172,,"JACOBS FONTAINE",,50.878928,4.342935,,,0,
6173,,"PRINCE LEOPOLD",,50.883144,4.341753,,,0,
6174F,,"PRINC. CLEMENTINE",,50.876997,4.354658,,,0,
6175,,"AVENUE DU ROI",,50.831830,4.333762,,,0,
6177F,,"THOMAS",,50.867119,4.363786,,,0,
6190,,"BRABANCONNE",,50.852119,4.387783,,,0,
6191,,"BRABANCONNE",,50.851728,4.387294,,,0,
6201F,,"LEFRANCQ",,50.861404,4.368416,,,0,
6202F,,"ROBIANO",,50.860790,4.371323,,,0,
6204F,,"PATRIE",,50.856230,4.391249,,,0,
6209,,"BERKENDAEL",,50.818079,4.346047,,,0,
6210,,"BIENFAITEURS",,50.857731,4.383811,,,0,
6214,,"PATRIE",,50.856167,4.391746,,,0,
6253,,"BERKENDAEL",,50.817656,4.346160,,,0,
6258F,,"PATRIE",,50.856734,4.391036,,,0,
6308,,"CONGRES",,50.850418,4.364228,,,0,
6313F,,"POELAERT",,50.837012,4.353406,,,0,
6314,,"LOUISE",,50.835673,4.355167,,,0,
6352,,"POELAERT",,50.837219,4.353264,,,0,
6355,,"PALAIS",,50.843837,4.360876,,,0,
6356,,"PARC",,50.846613,4.362363,,,0,
6357,,"CONGRES",,50.850684,4.364438,,,0,
6361,,"LOUISE",,50.835888,4.355039,,,0,
6369,,"MERIDIEN",,50.856809,4.369347,,,0,
6406,,"LEPOUTRE",,50.819878,4.359400,,,0,
6408,,"LEPOUTRE",,50.819959,4.359159,,,0,
6410,,"SAINTE-MARIE",,50.858169,4.368372,,,0,
6411,,"SAINTE-MARIE",,50.858091,4.368127,,,0,
6418,,"ROBIANO",,50.860305,4.371337,,,0,
6419F,,"ROBIANO",,50.860979,4.370727,,,0,
6420G,,"VANDERKINDERE",,50.814339,4.348376,,,0,
6421F,,"VANDERKINDERE",,50.813378,4.348149,,,0,
6422F,,"VANDERKINDERE",,50.813198,4.348560,,,0,
6423F,,"VANDERKINDERE",,50.812915,4.347440,,,0,
6424F,,"VANDERKINDERE",,50.814348,4.347510,,,0,
6428,,"JANSON",,50.825964,4.354644,,,0,
6428F,,"JANSON",,50.825784,4.354601,,,0,
6430,,"JANSON",,50.826009,4.354786,,,0,
6430F,,"JANSON",,50.826144,4.354828,,,0,
6432,,"TRONE",,50.840537,4.366324,,,0,
6433,,"TRONE",,50.840315,4.367127,,,0,
6435,,"BOTANIQUE",,50.853536,4.366082,,,0,
6438,,"BOTANIQUE",,50.853715,4.365770,,,0,
6439,,"MONTANA",,50.799589,4.376795,,,0,
6440,,"MONTANA",,50.799585,4.376343,,,0,
6442,,"GARE CENTRALE",,50.846506,4.359369,,,0,
6443,,"GARE CENTRALE",,50.845957,4.358090,,,0,
6444,,"GARE CENTRALE",,50.845927,4.357792,,,0,
6445,,"GARE CENTRALE",,50.845858,4.357294,,,0,
6448,,"DIAMANT",,50.849465,4.402304,,,0,
6449,,"DIAMANT",,50.848712,4.401753,,,0,
6450,,"DIAMANT",,50.848802,4.401668,,,0,
6451,,"DIAMANT",,50.849103,4.401571,,,0,
6453,,"WASHINGTON",,50.821838,4.362820,,,0,
6454,,"DIAMANT",,50.849234,4.401540,,,0,
6456F,,"PRINC. ELISABETH",,50.873267,4.377632,,,0,
6457F,,"PRINC. ELISABETH",,50.873010,4.378128,,,0,
6459G,,"PRINC. ELISABETH",,50.872983,4.376875,,,0,
6461G,,"PRINC. ELISABETH",,50.872585,4.376544,,,0,
6462F,,"MERODE",,50.839301,4.399631,,,0,
6463F,,"MERODE",,50.839184,4.399971,,,0,
6464,,"MAELBEEK",,50.843725,4.378319,,,0,
6465,,"MAELBEEK",,50.843551,4.378072,,,0,
6468,,"DEMEY",,50.813187,4.422657,,,0,
6469,,"DEMEY",,50.812620,4.423124,,,0,
6471,,"ETANGS NOIRS",,50.857234,4.332479,,,0,
6472,,"THIEFFRY",,50.832934,4.401811,,,0,
6473,,"THIEFFRY",,50.832846,4.401926,,,0,
6474F,,"STOCKEL",,50.841350,4.465339,,,0,
6475F,,"STOCKEL",,50.841009,4.465309,,,0,
6476,,"TOMBERG",,50.842837,4.424814,,,0,
6477,,"TOMBERG",,50.842932,4.425034,,,0,
6481,,"ROI BAUDOUIN",,50.896840,4.329706,,,0,
6482,,"ROI BAUDOUIN",,50.896813,4.329876,,,0,
6483B,,"VEEWEYDE",,50.830338,4.301111,,,0,
6484B,,"VEEWEYDE",,50.829745,4.300692,,,0,
6485G,,"ESPLANADE",,50.899576,4.348519,,,0,
6486G,,"ESPLANADE",,50.899681,4.348488,,,0,
6504,,"JACOBS FONTAINE",,50.878901,4.342438,,,0,
6505,,"FOYER JETTOIS",,50.878984,4.338516,,,0,
6552,,"FOYER JETTOIS",,50.879035,4.338118,,,0,
6601,,"LEMONNIER",,50.840381,4.340599,,,0,64
6604F,,"PORTE DE FLANDRE",,50.853991,4.342195,,,0,
6607,,"YSER",,50.857741,4.348783,,,0,
6608G,,"ARTS ET METIERS",,50.847997,4.337780,,,0,
6648F,,"TRIANGLE",,50.850009,4.334997,,,0,
6649F,,"PORTE DE NINOVE",,50.850667,4.338989,,,0,
6650G,,"ARTS ET METIERS",,50.847602,4.337914,,,0,
6651,,"YSER",,50.857525,4.348670,,,0,
6653F,,"PORTE DE NINOVE",,50.850353,4.338531,,,0,
6654F,,"PORTE DE FLANDRE",,50.853685,4.341809,,,0,
6657,,"LEMONNIER",,50.840048,4.340684,,,0,64
6659F,,"PTE D'ANDERLECHT",,50.844281,4.339209,,,0,
6702,,"BORNE",,50.855459,4.335186,,,0,
6705F,,"BARA",,50.838915,4.337476,,,0,
6706,,"SAVONNERIE",,50.853178,4.331389,,,0,
6754,,"BORNE",,50.854151,4.335549,,,0,
6755,,"COMTE DE FLANDRE",,50.856013,4.338104,,,0,
6792F,,"VAN BEETHOVEN",,50.828862,4.292786,,,0,
6799F,,"VAN BEETHOVEN",,50.828656,4.292407,,,0,
6800F,,"GARE DE JETTE",,50.880240,4.330053,,,0,
6803F,,"LENOIR",,50.876838,4.328183,,,0,
6804F,,"PLACE R. ASTRID",,50.873369,4.325787,,,0,
6805F,,"BROUSTIN",,50.867910,4.326554,,,0,
6808G,,"CONSEIL",,50.839317,4.329540,,,0,
6809F,,"DOUVRES",,50.836065,4.314026,,,0,
6810,,"MEIR",,50.832679,4.301780,,,0,
6811,,"YSAYE",,50.830780,4.297495,,,0,
6812,,"MEIR",,50.832679,4.301780,,,0,
6856,,"YSAYE",,50.830357,4.296602,,,0,
6856B,,"YSAYE",,50.830357,4.296602,,,0,
6857,,"MEIR",,50.832599,4.302702,,,0,
6858G,,"DOUVRES",,50.836122,4.314737,,,0,
6860G,,"CONSEIL",,50.839140,4.329839,,,0,
6864F,,"BROUSTIN",,50.868309,4.326364,,,0,
6865F,,"MIROIR",,50.871221,4.324418,,,0,
6866F,,"PLACE R. ASTRID",,50.873537,4.325971,,,0,
6867F,,"LENOIR",,50.876532,4.328050,,,0,
6869G,,"GARE DE JETTE",,50.880121,4.330420,,,0,
6934F,,"FORT-JACO",,50.789621,4.373830,,,0,
7330,,"DIEWEG",,50.795596,4.348866,,,0,
7331,,"THEVENET",,50.794716,4.352426,,,0,
7332,,"LANCASTER",,50.794677,4.357854,,,0,
7465,,"KEYENBEMPT",,50.793425,4.320560,,,0,
7468,,"GRAND'ROUTE",,50.787383,4.316901,,,0,
7469,,"DROGENBOS",,50.784594,4.318938,,,0,
7472,,"DROGENBOS",,50.784693,4.318950,,,0,
7474,,"GRAND'ROUTE",,50.787735,4.317477,,,0,
7501,,"HIPPODROME",,50.849530,4.505415,,,0,
7614F,,"BARRIERE",,50.827428,4.343563,,,0,
7645F,,"LEFRANCQ",,50.861231,4.369277,,,0,
7939,,"MERODE",,50.839312,4.399610,,,0,
7968B,,"PETILLON",,50.830021,4.402957,,,0,
8011,,"DE BROUCKERE",,50.850095,4.352165,,,0,15
8012,,"DE BROUCKERE",,50.849821,4.352486,,,0,15
0010115,,"4 - Boulevard Anspach",,50.850262,4.351740,,,2,15
0010215,,"2 - Place De Brouckère",,50.851997,4.353216,,,2,15
0010315,,"3 - Place De Brouckère",,50.851161,4.352890,,,2,15
0010415,,"1 - Place De Brouckère",,50.851404,4.352492,,,2,15
8021,,"GARE CENTRALE",,50.846679,4.358551,,,0,16
0020816,,"8 - Rue de Loxum",,50.846802,4.358656,,,2,16
8022,,"GARE CENTRALE",,50.846349,4.358776,,,0,16
0020116,,"1 - Putterie",,50.846092,4.358117,,,2,16
0020216,,"2 - Rue des Colonies",,50.846496,4.359040,,,2,16
0020316,,"3 - Rue des Colonies",,50.846263,4.359026,,,2,16
0020416,,"3 - Rue des Colonies",,50.846236,4.358926,,,2,16
0020516,,"5 - Rue Montagne du Parc",,50.846029,4.359338,,,2,16
0020616,,"6 - Putterie",,50.845867,4.358373,,,2,16
0020716,,"7 - Rue de Loxum",,50.846721,4.358344,,,2,16
8031,,"PARC",,50.845628,4.362431,,,0,17
8032,,"PARC",,50.845688,4.362979,,,0,17
0030117,,"1 - Rue Royale",,50.846631,4.362561,,,2,17
8041,,"ARTS-LOI",,50.845476,4.369121,,,0,18
8042,,"ARTS-LOI",,50.845333,4.369620,,,0,18
0040118,,"1 - Rue de la Loi",,50.845544,4.368085,,,2,18
0040218,,"2 - Rue de la Loi",,50.845796,4.368071,,,2,18
0040318,,"3 - Avenue des Arts",,50.845751,4.369150,,,2,18
0040418,,"4 - Avenue des Arts",,50.845330,4.368800,,,2,18
0040518,,"5 - Boulevard du Régent",,50.845962,4.368988,,,2,18
0040618,,"6 - Boulevard du Régent",,50.845082,4.368487,,,2,18
8051,,"MAELBEEK",,50.843790,4.377084,,,0,19
8052,,"MAELBEEK",,50.843654,4.377588,,,0,19
0050119,,"1 - Chaussée d'Etterbeek",,50.843571,4.378137,,,2,19
0050219,,"2 - Rue de la Loi",,50.843836,4.376348,,,2,19
0050319,,"3 - Rue de la Loi",,50.843871,4.377853,,,2,19
0050419,,"4 - Rue Joseph II",,50.844761,4.376391,,,2,19
0050519,,"5 - Rue de la Loi",,50.844078,4.376476,,,2,19
8061,,"SCHUMAN",,50.842972,4.380974,,,0,20
8062,,"SCHUMAN",,50.842756,4.381829,,,0,20
0060120,,"1 - Rue de la Loi",,50.842819,4.380707,,,2,20
0060420,,"3 - Rond-point Schuman",,50.842738,4.383234,,,2,20
0060520,,"2 - Rond-point Schuman",,50.842325,4.383064,,,2,20
8071,,"MERODE",,50.839534,4.397696,,,0,21
8072,,"MERODE",,50.839363,4.398282,,,0,21
0070121,,"1 - Avenue de l'Yser",,50.839787,4.397885,,,2,21
0070221,,"2 - Avenue de Tervuren",,50.839517,4.398751,,,2,21
0070321,,"3 - Avenue des Celtes",,50.839148,4.398296,,,2,21
0070421,,"4 - Avenue des Gaulois",,50.839212,4.397586,,,2,21
0070521,,"7 - Square Princesse Jean de Mérode",,50.839400,4.399432,,,2,21
0070621,,"8 - Rue des Tongres",,50.838636,4.399645,,,2,21
8081,,"MONTGOMERY",,50.837822,4.407364,,,0,37
0080137,,"1 - Square Maréchal Montgomery",,50.837589,4.408777,,,2,37
0080237,,"2 - Boulevard Saint-Michel",,50.836880,4.407977,,,2,37
0080337,,"3 - Square Maréchal Montgomery",,50.837150,4.406756,,,2,37
0080437,,"4 - Avenue de Tervuren",,50.837986,4.406459,,,2,37
0080537,,"5 - Boulevard Brand Whitlock",,50.838076,4.408290,,,2,37
8082,,"MONTGOMERY",,50.837806,4.407955,,,0,37
8091,,"JOSEPH.-CHARLOTTE",,50.840366,4.413792,,,0,36
0090136,,"1 - Square Joséphine-Charlotte",,50.839998,4.412977,,,2,36
0090236,,"2 - Avenue de Woluwe-St-Lambert",,50.840483,4.413659,,,2,36
0090336,,"3 - Avenue de Broqueville",,50.840195,4.413871,,,2,36
8092,,"JOSEPH.-CHARLOTTE",,50.840527,4.414051,,,0,36
8101,,"GRIBAUMONT",,50.842506,4.418286,,,0,35
0100135,,"1 - Avenue du Roi Chevalier",,50.842549,4.417636,,,2,35
0100235,,"1 - Avenue du Roi Chevalier",,50.842737,4.418133,,,2,35
0100335,,"2 - Avenue du Roi Chevalier",,50.842252,4.418048,,,2,35
0100435,,"3 - Avenue Gribaumont",,50.842261,4.417607,,,2,35
0100535,,"4 - Avenue Gribaumont",,50.842666,4.417736,,,2,35
8102,,"GRIBAUMONT",,50.842594,4.418967,,,0,35
8111,,"TOMBERG",,50.844316,4.425819,,,0,34
0110134,,"1 - Avenue Paul Hymans",,50.843642,4.424822,,,2,34
0110234,,"2 - Avenue Paul Hymans",,50.844739,4.425831,,,2,34
0110334,,"3 - Place du Tomberg",,50.844082,4.426611,,,2,34
0110434,,"4 - Place du Tomberg",,50.843588,4.425517,,,2,34
8112,,"TOMBERG",,50.844833,4.426369,,,0,34
8121,,"ROODEBEEK",,50.847530,4.435656,,,0,33
0120133,,"1 - Parking Roodebeek",,50.847790,4.435917,,,2,33
0120233,,"2 - Avenue Paul Hymans",,50.847897,4.437521,,,2,33
0120333,,"3 - Avenue Paul Hymans",,50.847612,4.437832,,,2,33
0120433,,"4 - Woluwe Shopping Center",,50.847716,4.438515,,,2,33
0120533,,"5 - Avenue Paul Hymans",,50.847197,4.434950,,,2,33
0120633,,"6 - Avenue Paul Hymans",,50.847413,4.434326,,,2,33
8122,,"ROODEBEEK",,50.847552,4.436102,,,0,33
8131,,"VANDERVELDE",,50.847387,4.446705,,,0,32
0130132,,"1 - Avenue Emile Vandervelde",,50.847692,4.448526,,,2,32
0130232,,"2 - Avenue Emile Vandervelde",,50.847342,4.447815,,,2,32
8132,,"VANDERVELDE",,50.847439,4.447303,,,0,32
8141,,"ALMA",,50.849881,4.453149,,,0,31
0140131,,"3 - Place de l'Alma",,50.849980,4.453467,,,2,31
0140231,,"2 - Place de la Vecquée",,50.849909,4.452832,,,2,31
0140431,,"R MARTIN V",,50.850002,4.453294,,,2,31
8142,,"ALMA",,50.849991,4.453400,,,0,31
8151,,"CRAINHEM",,50.848796,4.458719,,,0,30
0150130,,"1 - Avenue de Wezembeek",,50.848781,4.458723,,,2,30
8152,,"CRAINHEM",,50.848478,4.458929,,,0,30
8161,,"STOCKEL",,50.841872,4.464541,,,0,29
0160129,,"1 - Square Stockel",,50.841432,4.464686,,,2,29
0160229,,"2 - Rue Dominique De Jonghe",,50.842592,4.463780,,,2,29
8162,,"STOCKEL",,50.841854,4.464406,,,0,29
8201,,"THIEFFRY",,50.833690,4.401677,,,0,22
8202,,"THIEFFRY",,50.833128,4.401864,,,0,22
0200122,,"1 - Pont Fernand Demany",,50.833089,4.401756,,,2,22
0200222,,"2 - Pont Fernand Demany",,50.832738,4.402125,,,2,22
8211,,"PETILLON",,50.827929,4.403859,,,0,23
8212,,"PETILLON",,50.827461,4.403987,,,0,23
0210123,,"1 - Avenue des Volontaires",,50.827209,4.404094,,,2,23
0210223,,"2 - Boulevard Louis Schimdt",,50.829510,4.403120,,,2,23
8221,,"HANKAR",,50.821592,4.405618,,,0,24
8222,,"HANKAR",,50.820889,4.405382,,,0,24
0220124,,"1 - Chaussée de Wavre",,50.821571,4.405767,,,2,24
0220224,,"2 - Chaussée de Wavre",,50.821746,4.405347,,,2,24
0220324,,"3 - Chaussée de Wavre",,50.821949,4.405622,,,2,24
8231,,"DELTA",,50.818685,4.404406,,,0,25
8232,,"DELTA",,50.818202,4.404056,,,0,25
0230125,,"1 - Parking Delta",,50.817405,4.405234,,,2,25
0230225,,"2 - Boulevard du Triomphe",,50.818579,4.402640,,,2,25
0230325,,"3 - Boulevard des Invalides",,50.818435,4.404655,,,2,25
0230425,,"4 - Rue Jules Cockx",,50.817877,4.404314,,,2,25
0230625,,"BD INVALIDES/R TROIS PONTS",,50.818363,4.404342,,,2,25
8241,,"BEAULIEU",,50.815128,4.409346,,,0,26
8242,,"BEAULIEU",,50.815050,4.409977,,,0,26
0240126,,"1 - Rue Jules Cockx",,50.815143,4.409264,,,2,26
0240226,,"2 - Rue Jules Cockx",,50.815250,4.408472,,,2,26
0240326,,"3 - Avenue des Meuniers",,50.815121,4.410152,,,2,26
0240426,,"4 - Avenue des Meuniers",,50.814990,4.410427,,,2,26
0240526,,"5 - Rue Jules Cockx",,50.815116,4.408654,,,2,26
8251,,"DEMEY",,50.813545,4.421005,,,0,27
8252,,"DEMEY",,50.813192,4.421920,,,0,27
0250127,,"1 - Avenue E.Van Nieuwenhuyse",,50.813692,4.419436,,,2,27
0250227,,"2 - Avenue Louis Dehoux",,50.814051,4.420629,,,2,27
0250327,,"3 - Avenue Louis Dehoux",,50.813331,4.422501,,,2,27
0250427,,"4 - Avenue Louis Dehoux",,50.813385,4.422416,,,2,27
0250527,,"5 - Avenue E.Van Nieuwenhuyse",,50.812954,4.421422,,,2,27
8261,,"HERRMANN-DEBROUX",,50.812195,4.428503,,,0,28
8262,,"HERRMANN-DEBROUX",,50.812243,4.429236,,,0,28
0260128,,"1 - Avenue Herrmann-Debroux",,50.812123,4.428317,,,2,28
0260228,,"2 - Avenue Herrmann-Debroux",,50.812555,4.428317,,,2,28
8271,,"SAINTE-CATHERINE",,50.852347,4.347749,,,0,14
8272,,"SAINTE-CATHERINE",,50.851900,4.348012,,,0,14
0270114,,"1 - Quai au Bois à Brûler",,50.851934,4.348232,,,2,14
0270314,,"1 - Quai aux Briques",,50.851853,4.347863,,,2,14
0270414,,"1 - Quai aux Briques",,50.852581,4.347365,,,2,14
0270514,,"1 - Quai aux Briques",,50.853165,4.346953,,,2,14
0270614,,"1 - Quai au Bois à Brûler",,50.852949,4.347536,,,2,14
8281,,"COMTE DE FLANDRE",,50.854968,4.340056,,,0,13
8282,,"COMTE DE FLANDRE",,50.854705,4.340542,,,0,13
0280113,,"1 - Rue du Comte de Flandre",,50.855258,4.339383,,,2,13
0280213,,"2 - Rue Sainte-Marie",,50.854351,4.341457,,,2,13
8291,,"ETANGS NOIRS",,50.857096,4.332019,,,0,12
8292,,"ETANGS NOIRS",,50.857125,4.333143,,,0,12
0290112,,"1 - Place des Étangs Noirs",,50.857018,4.332920,,,2,12
0290212,,"2 - Chaussée de Gand",,50.856901,4.331641,,,2,12
8301,,"TRONE",,50.840792,4.366343,,,0,44
0300144,,"1 - Rue du Luxembourg",,50.840681,4.366097,,,2,44
0300244,,"2 - Rue Montoyer",,50.841885,4.367091,,,2,44
8302,,"TRONE",,50.841001,4.366499,,,0,44
8311,,"PORTE DE NAMUR",,50.838022,4.361236,,,0,45
0310145,,"1 - Chaussée d'Ixelles",,50.838163,4.361725,,,2,45
0310245,,"2 - Avenue de la Toison d'Or",,50.837921,4.361157,,,2,45
0310345,,"3 - Boulevard de Waterloo",,50.838936,4.361512,,,2,45
0310445,,"4 - Boulevard du Régent",,50.839026,4.361682,,,2,45
0310545,,"5 - Place du Champ de Mars",,50.838748,4.363187,,,2,45
0310645,,"6 - Square du Bastion",,50.838154,4.362307,,,2,45
8312,,"PORTE DE NAMUR",,50.838185,4.361699,,,0,45
8321,,"LOUISE",,50.835061,4.354240,,,0,46
0320146,,"1 - Avenue Louise",,50.835592,4.355692,,,2,46
0320246,,"2 - Avenue Louise",,50.835295,4.355181,,,2,46
0320346,,"3 - Boulevard de Waterloo",,50.836131,4.355124,,,2,46
0320446,,"4 - Boulevard de Waterloo",,50.836320,4.355550,,,2,46
0370546,,"5 - Place Louise",,50.835664,4.355074,,,2,46
8322,,"LOUISE",,50.835176,4.354622,,,0,46
8331,,"HOTEL DES MONNAIES",,50.833229,4.348571,,,0,47
0330147,,"1 - Boulevard de Waterloo",,50.833946,4.349829,,,2,47
0330247,,"2 - Avenue de la Toison d'Or",,50.833658,4.350923,,,2,47
0330347,,"3 - Avenue Henri Jaspar",,50.833389,4.350270,,,2,47
0330447,,"4 - Boulevard de Waterloo",,50.833766,4.349432,,,2,47
8332,,"HOTEL DES MONNAIES",,50.833309,4.349219,,,0,47
8341,,"PORTE DE HAL",,50.833941,4.343077,,,0,48
0340148,,"1 - Rue César de Paepe",,50.833522,4.342831,,,2,48
0340248,,"2 - Boulevard du Midi",,50.833774,4.343527,,,2,48
0340348,,"3 - Chaussée de Forest",,50.832605,4.342335,,,2,48
0340448,,"4 - Avenue de la Porte de Hal",,50.832713,4.343641,,,2,48
8342,,"PORTE DE HAL",,50.833713,4.343513,,,0,48
8351,,"GARE DU MIDI",,50.836270,4.338166,,,0,49
0350149,,"1 - Avenue Fonsny",,50.835948,4.337833,,,2,49
0350249,,"2 - Gare SNCB",,50.836766,4.336583,,,2,49
0350649,,"6 - Boulevard de l'Europe",,50.837629,4.336781,,,2,49
0350749,,"7 - Avenue Fonsny",,50.836020,4.338656,,,2,49
8352,,"GARE DU MIDI",,50.836258,4.338470,,,0,49
8361,,"CLEMENCEAU",,50.840820,4.331202,,,0,50
0360150,,"1 - Rue de la Clinique",,50.840621,4.331299,,,2,50
0360250,,"2 - Chaussée de Mons",,50.841807,4.330120,,,2,50
8362,,"CLEMENCEAU",,50.840690,4.331467,,,0,50
8371,,"DELACROIX",,50.845158,4.324324,,,0,51
0370151,,"1 - Rue Léon Delacroix",,50.845293,4.324892,,,2,51
0370351,,"3 - Quai Fernand Demets",,50.845006,4.325275,,,2,51
0370451,,"4 - Quai de l'Industrie",,50.844727,4.325787,,,2,51
8372,,"DELACROIX",,50.844982,4.324744,,,0,51
8381,,"GARE DE L'OUEST",,50.849014,4.321490,,,0,10
8382,,"GARE DE L'OUEST",,50.848922,4.321442,,,0,10
8401,,"ARTS-LOI",,50.845440,4.368744,,,0,18
8402,,"ARTS-LOI",,50.845572,4.368860,,,0,18
8411,,"MADOU",,50.849728,4.369174,,,0,43
0410143,,"1 - Place Madou",,50.848897,4.369718,,,2,43
0410243,,"2 - Boulevard Bischoffsheim",,50.850290,4.368397,,,2,43
0410343,,"3 - Rue des Cultes",,50.850425,4.368355,,,2,43
0410443,,"4 - Place Madou",,50.849802,4.369482,,,2,43
8412,,"MADOU",,50.849916,4.369168,,,0,43
8421,,"BOTANIQUE",,50.853990,4.365557,,,0,42
0420142,,"1 - Rue Royale",,50.853598,4.366153,,,2,42
0420342,,"3 - Boulevard du Jardin Botanique",,50.853050,4.365216,,,2,42
8422,,"BOTANIQUE",,50.854096,4.365291,,,0,42
8431,,"ROGIER",,50.855412,4.358416,,,0,41
0430141,,"1 - Boulevard du Jardin Botanique",,50.855072,4.358470,,,2,41
0430241,,"2 - Boulevard Adolphe Max",,50.855346,4.357611,,,2,41
0430341,,"3 - Boulevard Adolphe Max",,50.855162,4.357533,,,2,41
0430441,,"1 - Boulevard du Jardin Botanique",,50.854953,4.359074,,,2,41
0430541,,"1 - City 2",,50.854839,4.358399,,,2,41
0430641,,"8 - Place Charles Rogier",,50.855585,4.358750,,,2,41
0430741,,"7 - Place Charles Rogier",,50.855953,4.358754,,,2,41
0430841,,"4 - Avenue du Boulevard",,50.855653,4.357690,,,2,41
0431041,,"3 - Boulevard Adolphe Max",,50.855257,4.357899,,,2,41
0431141,,"2 - Boulevard Adolphe Max",,50.855162,4.357689,,,2,41
8432,,"ROGIER",,50.855560,4.358317,,,0,41
8441,,"YSER",,50.857226,4.351501,,,0,40
0440140,,"1 - Boulevard Baudouin",,50.857058,4.352902,,,2,40
0440240,,"2 - Chaussée d'Anvers",,50.857175,4.352420,,,2,40
0440340,,"3 - Porte d'Anvers",,50.856600,4.352633,,,2,40
0440440,,"4 - Boulevard d'Anvers",,50.857409,4.350204,,,2,40
0440540,,"5 - Boulevard d'Anvers",,50.857516,4.349877,,,2,40
0440640,,"6 - Parc Maximilien",,50.857957,4.350246,,,2,40
8442,,"YSER",,50.857321,4.351197,,,0,40
8461,,"RIBAUCOURT",,50.860406,4.339753,,,0,39
0460139,,"1 - Boulevard Léopold II",,50.860813,4.338286,,,2,39
0460239,,"1 - Rue de Ribaucourt",,50.860014,4.341262,,,2,39
8462,,"RIBAUCOURT",,50.860516,4.339485,,,0,39
8471,,"ELISABETH",,50.862859,4.331420,,,0,38
0470138,,"1 - Boulevard Léopold II",,50.863445,4.330997,,,2,38
0470238,,"2 - Rue de l'Armistice",,50.863625,4.331196,,,2,38
0470338,,"3 - Rue de l'Armistice",,50.862690,4.329918,,,2,38
0470438,,"4 - Boulevard Léopold II",,50.862851,4.330131,,,2,38
0470638,,"6 - Place Simonis",,50.863435,4.328369,,,2,38
0470738,,"6 - Place Simonis",,50.864047,4.328866,,,2,38
8472,,"ELISABETH",,50.863138,4.330743,,,0,38
8641,,"ERASME",,50.815223,4.266114,,,0,1
8642,,"ERASME",,50.815237,4.267327,,,0,1
7640101,,"1 - Route de Lennik",,50.815503,4.268103,,,2,1
7640201,,"2 - Route de Lennik",,50.815144,4.268231,,,2,1
7640301,,"3 - Hôpital Erasme",,50.815142,4.266188,,,2,1
8651,,"EDDY MERCKX",,50.816767,4.280609,,,0,2
8652,,"EDDY MERCKX",,50.816504,4.281547,,,0,2
7650102,,"1 - Boulevard Josse Leemans",,50.816494,4.281794,,,2,2
7650202,,"2 - Route de Lennik",,50.816609,4.279821,,,2,2
8661,,"CERIA",,50.816162,4.289054,,,0,3
8662,,"CERIA",,50.816451,4.290203,,,0,3
7660103,,"1 - Chaussée de Mons",,50.816761,4.290734,,,2,3
7660203,,"2 - Parking CERIA",,50.815743,4.288323,,,2,3
8671,,"LA ROUE",,50.820920,4.293693,,,0,4
8672,,"LA ROUE",,50.821263,4.294043,,,0,4
7670104,,"1 - Chaussée de Mons",,50.820538,4.293523,,,2,4
7670204,,"2 - Chaussée de Mons",,50.821734,4.294287,,,2,4
8681,,"BIZET",,50.824934,4.297078,,,0,5
8682,,"BIZET",,50.825167,4.297644,,,0,5
7680105,,"1 - Place Bizet",,50.825215,4.297873,,,2,5
8691,,"VEEWEYDE",,50.829391,4.300578,,,0,6
8692,,"VEEWEYDE",,50.829611,4.300732,,,0,6
7690106,,"1 - Avenue Gounod",,50.830188,4.300846,,,2,6
7690206,,"2 - Place Verdi",,50.828345,4.299500,,,2,6
8701,,"SAINT-GUIDON",,50.834649,4.305052,,,0,7
8702,,"SAINT-GUIDON",,50.834928,4.305314,,,0,7
7700107,,"1 - Cours Saint-Guidon",,50.834830,4.305595,,,2,7
7700207,,"2 - Cours Saint-Guidon",,50.834848,4.306277,,,2,7
8711,,"AUMALE",,50.839462,4.312081,,,0,8
8712,,"AUMALE",,50.839675,4.312518,,,0,8
7710108,,"1 - Square E. Vander Bruggen",,50.839328,4.312645,,,2,8
7710208,,"2 - Place du Repos",,50.839930,4.312020,,,2,8
8721,,"JACQUES BREL",,50.843785,4.318032,,,0,9
8722,,"JACQUES BREL",,50.843982,4.318166,,,0,9
7720109,,"1 - Avenue Norbert Gille",,50.842845,4.317781,,,2,9
7720209,,"2 - Avenue Norbert Gille",,50.842512,4.317185,,,2,9
7720309,,"3 - Boulevard Jules Graindor",,50.845237,4.318389,,,2,9
7720409,,"4 - Boulevard Jules Graindor",,50.844652,4.318176,,,2,9
8731,,"GARE DE L'OUEST",,50.848584,4.320673,,,0,10
8732,,"GARE DE L'OUEST",,50.848979,4.321096,,,0,10
7730110,,"1 - Avenue Joseph Baeck",,50.848943,4.320479,,,2,10
7730510,,"5 - Rue Verheyden",,50.848609,4.320686,,,2,10
7730610,,"6 - Chaussée de Ninove",,50.848636,4.320433,,,2,10
8733,,"GARE DE L'OUEST",,50.848995,4.320946,,,0,10
8741,,"BEEKKANT",,50.853111,4.322763,,,0,11
8742,,"BEEKKANT",,50.853386,4.322974,,,0,11
7740111,,"1 - Rue Dubois-Thorn",,50.853644,4.322939,,,2,11
7740211,,"2 - Rue Alphonse Vandenpeereboom",,50.853312,4.324600,,,2,11
8743,,"BEEKKANT",,50.853428,4.322773,,,0,11
8744,,"BEEKKANT",,50.853350,4.323113,,,0,11
8753,,"OSSEGHEM",,50.857115,4.325218,,,0,52
7750152,,"1 - Chaussée de Gand",,50.857240,4.324938,,,2,52
7750252,,"2 - Avenue Mahatma Gandhi",,50.857402,4.324994,,,2,52
8754,,"OSSEGHEM",,50.856850,4.325246,,,0,52
8763,,"SIMONIS",,50.863645,4.330848,,,0,53
8764,,"SIMONIS",,50.863120,4.330479,,,0,53
8773,,"BELGICA",,50.868525,4.336850,,,0,60
8774,,"BELGICA",,50.868474,4.336964,,,0,60
7770160,,"1 - Boulevard Belgica",,50.867797,4.336051,,,2,60
7770260,,"2 - Boulevard Belgica",,50.867438,4.335469,,,2,60
8783,,"PANNENHUIS",,50.873666,4.343031,,,0,59
8784,,"PANNENHUIS",,50.873614,4.343137,,,0,59
7780159,,"1 - Rue Charles Demeer",,50.872815,4.342100,,,2,59
8793,,"BOCKSTAEL",,50.879149,4.347845,,,0,58
8794,,"BOCKSTAEL",,50.879152,4.347993,,,0,58
7790158,,"1 - Rue Léopold I",,50.877913,4.348491,,,2,58
7790258,,"2 - Place Emile Bockstael",,50.877787,4.347567,,,2,58
7790358,,"3 - Boulevard Emile Bockstael",,50.879477,4.347567,,,2,58
7790458,,"4 - Rue du Champ de la Couronne",,50.880205,4.347254,,,2,58
7790558,,"5 - Rue des Artistes",,50.880080,4.348007,,,2,58
8803,,"STUYVENBERGH",,50.885588,4.342629,,,0,57
8804,,"STUYVENBERGH",,50.885640,4.342738,,,0,57
7800157,,"1 - Boulevard de Smet de Naeyer",,50.886227,4.342306,,,2,57
7800257,,"4 - Avenue Houba-de Strooper",,50.885796,4.342178,,,2,57
7800357,,"3 - Boulevard de Smet de Naeyer",,50.886119,4.341496,,,2,57
7800457,,"2 - Avenue Houba-de Strooper",,50.886425,4.342135,,,2,57
8813,,"HOUBA-BRUGMANN",,50.889549,4.337629,,,0,56
8814,,"HOUBA-BRUGMANN",,50.889600,4.337736,,,0,56
7810156,,"1 - Avenue Houba-de Strooper",,50.889921,4.336803,,,2,56
7810256,,"2 - Rue du Heysel",,50.890415,4.337130,,,2,56
8823,,"HEYSEL",,50.897076,4.335408,,,0,55
8824,,"HEYSEL",,50.897198,4.335515,,,0,55
7820155,,"1 - Avenue Impératrice Charlotte",,50.896896,4.336514,,,2,55
7820255,,"2 - Avenue des Athlètes",,50.896915,4.337424,,,2,55
7820355,,"3 - Esplanade",,50.896699,4.336813,,,2,55
7820455,,"4 - Esplanade",,50.896888,4.337353,,,2,55
8825,,"HEYSEL",,50.897102,4.335430,,,0,
8833,,"ROI BAUDOUIN",,50.896371,4.328009,,,0,54
8834,,"ROI BAUDOUIN",,50.896460,4.327959,,,0,54
7830154,,"1 - Avenue Impératrice Charlotte",,50.896580,4.329137,,,2,54
7830254,,"2 - Avenue Houba de Strooper",,50.896444,4.328555,,,2,54
7830354,,"3 - Avenue des Citronniers",,50.896111,4.326707,,,2,54
9023B,,"RUE TRAVERSIERE",,50.854136,4.369269,,,0,
9025,,"WTC",,50.861751,4.356097,,,0,
9026,,"WTC",,50.861783,4.356277,,,0,
9047,,"STIENON",,50.889855,4.328816,,,0,
9051F,,"HEYSEL",,50.896804,4.337345,,,0,
9056F,,"HEYSEL",,50.896415,4.338161,,,0,
9059,,"HEILIGENBORRE",,50.789581,4.420431,,,0,
9060,,"QUETELET",,50.852550,4.369293,,,0,
9064,,"RUE TRAVERSIERE",,50.855234,4.368981,,,0,
9103,,"SQ. DU CENTENAIRE",,50.876241,4.317873,,,0,
9164,,"MARMOTTE",,50.836770,4.498038,,,0,
9169,,"VIER HUISKENS",,50.853235,4.501137,,,0,
9291,,"DAILLY",,50.852818,4.387149,,,0,
9292,,"SAINT-VINCENT",,50.880967,4.401719,,,0,
9296,,"DAILLY",,50.853165,4.386831,,,0,
9311,,"JULES BORDET",,50.870901,4.418774,,,0,
9551,,"RAVENSTEIN",,50.817458,4.483042,,,0,
9552,,"OPPEMSTRAAT",,50.825808,4.507526,,,0,
9553,,"BRUSSELSESTEENWEG",,50.822714,4.499484,,,0,
9556,,"TERVUREN STATION",,50.829596,4.513476,,,0,
9557,,"TERVUREN STATION",,50.829875,4.513420,,,0,
9561,,"VIER HUISKENS",,50.853434,4.500712,,,0,
9575,,"OPPEMSTRAAT",,50.825700,4.507124,,,0,
9577,,"BRUSSELSESTEENWEG",,50.822601,4.499049,,,0,
9578,,"RAVENSTEIN",,50.817529,4.482929,,,0,
9600B,,"BRUSSELS AIRPORT",,50.898149,4.481761,,,0,
9606,,"ENNEPETAL",,50.919556,4.406551,,,0,
9607,,"TWEE LEEUWENWEG",,50.916874,4.402265,,,0,
9608,,"VTM",,50.914188,4.398946,,,0,
9631,,"ENNEPETAL",,50.919385,4.408237,,,0,
9632,,"TWEE LEEUWENWEG",,50.916875,4.402106,,,0,
9634,,"VTM",,50.914170,4.397798,,,0,
9651,,"KERK RUISBROEK",,50.789937,4.298511,,,0,
9652,,"RUISBROEK CENTRUM",,50.786863,4.296658,,,0,
9654,,"KAPEL RUISBROEK",,50.781484,4.289118,,,0,
9655,,"VOETBALCLUB",,50.779679,4.286436,,,0,
9657,,"WATERBURY",,50.770704,4.278427,,,0,
9658,,"LOT STATION",,50.765858,4.273673,,,0,
9659,,"STATION LOT",,50.767033,4.275008,,,0,
9660,,"SPORTCENTRUM",,50.784025,4.292617,,,0,
9661,,"LAEKEBEEK",,50.774131,4.281374,,,0,
9677,,"WATERBURY",,50.771319,4.279084,,,0,
9679,,"VOETBALCLUB",,50.779512,4.286327,,,0,
9680,,"KAPEL RUISBROEK",,50.781303,4.288971,,,0,
9681,,"LAEKEBEEK",,50.774003,4.281352,,,0,
9682,,"RUISBROEK CENTRUM",,50.786366,4.296070,,,0,
9683,,"KERK RUISBROEK",,50.790324,4.299536,,,0,
9685,,"SPORTCENTRUM",,50.784229,4.293069,,,0,
9701,,"KERK MACHELEN",,50.912789,4.435476,,,0,
9702,,"RAEDEMAEKERS",,50.908114,4.431682,,,0,
9703,,"KASTEEL BEAULIEU",,50.902928,4.427401,,,0,
9725,,"KASTEEL BEAULIEU",,50.902827,4.427601,,,0,
9726,,"RAEDEMAEKERS",,50.907328,4.432775,,,0,
9727,,"PARKSTRAAT",,50.910196,4.439199,,,0,
9728,,"KONINGIN FABIOLA",,50.911397,4.439720,,,0,
9729,,"PELLENBERG",,50.914276,4.435643,,,0,
9753,,"BLOKKEN",,50.921767,4.428813,,,0,
9755,,"BICOQUE",,50.912118,4.418122,,,0,
9756,,"DIEGEMSTRAAT",,50.907677,4.414105,,,0,
9776,,"DIEGEMSTRAAT",,50.907073,4.414178,,,0,
9777,,"BICOQUE",,50.912115,4.418529,,,0,
9778,,"VIER FONTEINEN",,50.915595,4.421979,,,0,
9784B,,"VILVOORDE STATION",,50.924502,4.431920,,,0,
9851,,"LENNEKE MARE",,50.856374,4.450134,,,0,
9853,,"HOF TER MUSSCHEN",,50.854452,4.447756,,,0,
9876,,"LENNEKE MARE",,50.856481,4.450342,,,0,
9946,,"HAREN",,50.893058,4.422934,,,0,
9952G,,"FLAGEY",,50.826431,4.372295,,,0,
9959F,,"CHURCHILL",,50.811688,4.354123,,,0,
9963F,,"CHURCHILL",,50.811841,4.354222,,,0,
9969F,,"CHURCHILL",,50.811985,4.353655,,,0,
9972F,,"DIEWEG",,50.796526,4.348173,,,0,
9986F,,"CHURCHILL",,50.812075,4.353740,,,0,
9996,,"MONTGOMERY",,50.837483,4.406117,,,0,
67,,"ALBERT",,50.821090,4.343888,,,1,
31,,"ALMA",,50.849881,4.453149,,,1,
63,,"ANNEESSENS",,50.844184,4.345254,,,1,
18,,"ARTS-LOI",,50.845333,4.369620,,,1,
8,,"AUMALE",,50.839675,4.312518,,,1,
26,,"BEAULIEU",,50.815050,4.409977,,,1,
11,,"BEEKKANT",,50.853386,4.322974,,,1,
60,,"BELGICA",,50.868474,4.336964,,,1,
5,,"BIZET",,50.825167,4.297644,,,1,
58,,"BOCKSTAEL",,50.879152,4.347993,,,1,
70,,"BOILEAU",,50.832955,4.405187,,,1,
42,,"BOTANIQUE",,50.853990,4.365557,,,1,
62,,"BOURSE",,50.847772,4.348972,,,1,
3,,"CERIA",,50.816451,4.290203,,,1,
50,,"CLEMENCEAU",,50.840820,4.331202,,,1,
13,,"COMTE DE FLANDRE",,50.854705,4.340542,,,1,
30,,"CRAINHEM",,50.848796,4.458719,,,1,
15,,"DE BROUCKERE",,50.849821,4.352486,,,1,
51,,"DELACROIX",,50.845158,4.324324,,,1,
25,,"DELTA",,50.818202,4.404056,,,1,
27,,"DEMEY",,50.813192,4.421920,,,1,
68,,"DIAMANT",,50.848931,4.402428,,,1,
2,,"EDDY MERCKX",,50.816504,4.281547,,,1,
38,,"ELISABETH",,50.862859,4.331420,,,1,
1,,"ERASME",,50.815237,4.267327,,,1,
12,,"ETANGS NOIRS",,50.857125,4.333143,,,1,
16,,"GARE CENTRALE",,50.846349,4.358776,,,1,
10,,"GARE DE L'OUEST",,50.848979,4.321096,,,1,
49,,"GARE DU MIDI",,50.836270,4.338166,,,1,
61,,"GARE DU NORD",,50.860053,4.359662,,,1,
69,,"GEORGES HENRI",,50.843453,4.405598,,,1,
35,,"GRIBAUMONT",,50.842506,4.418286,,,1,
24,,"HANKAR",,50.820889,4.405382,,,1,
28,,"HERRMANN-DEBROUX",,50.812243,4.429236,,,1,
55,,"HEYSEL",,50.897198,4.335515,,,1,
66,,"HORTA",,50.825702,4.345490,,,1,
47,,"HOTEL DES MONNAIES",,50.833229,4.348571,,,1,
56,,"HOUBA-BRUGMANN",,50.889600,4.337736,,,1,
9,,"JACQUES BREL",,50.843982,4.318166,,,1,
36,,"JOSEPH.-CHARLOTTE",,50.840366,4.413792,,,1,
4,,"LA ROUE",,50.821263,4.294043,,,1,
64,,"LEMONNIER",,50.840084,4.341039,,,1,
46,,"LOUISE",,50.835061,4.354240,,,1,
43,,"MADOU",,50.849728,4.369174,,,1,
19,,"MAELBEEK",,50.843654,4.377588,,,1,
21,,"MERODE",,50.839363,4.398282,,,1,
37,,"MONTGOMERY",,50.837822,4.407364,,,1,
52,,"OSSEGHEM",,50.857115,4.325218,,,1,
59,,"PANNENHUIS",,50.873614,4.343137,,,1,
17,,"PARC",,50.845688,4.362979,,,1,
65,,"PARVIS ST-GILLES",,50.829721,4.346537,,,1,
23,,"PETILLON",,50.827461,4.403987,,,1,
48,,"PORTE DE HAL",,50.833941,4.343077,,,1,
45,,"PORTE DE NAMUR",,50.838022,4.361236,,,1,
39,,"RIBAUCOURT",,50.860406,4.339753,,,1,
41,,"ROGIER",,50.855412,4.358416,,,1,
54,,"ROI BAUDOUIN",,50.896460,4.327959,,,1,
33,,"ROODEBEEK",,50.847530,4.435656,,,1,
7,,"SAINT-GUIDON",,50.834928,4.305314,,,1,
14,,"SAINTE-CATHERINE",,50.851900,4.348012,,,1,
20,,"SCHUMAN",,50.842756,4.381829,,,1,
53,,"SIMONIS",,50.863645,4.330848,,,1,
29,,"STOCKEL",,50.841872,4.464541,,,1,
57,,"STUYVENBERGH",,50.885640,4.342738,,,1,
22,,"THIEFFRY",,50.833128,4.401864,,,1,
34,,"TOMBERG",,50.844316,4.425819,,,1,
44,,"TRONE",,50.840792,4.366343,,,1,
32,,"VANDERVELDE",,50.847387,4.446705,,,1,
6,,"VEEWEYDE",,50.829611,4.300732,,,1,
40,,"YSER",,50.857226,4.351501,,,1,
